city_ascii,lat,lng,country,iso2,capital,population,id
Tokyo,35.6897,139.6922,Japan,JP,primary,37732000,1392685764
Jakarta,-6.175,106.8275,Indonesia,ID,primary,33756000,1360771077
Delhi,28.61,77.23,India,IN,admin,32226000,1356872604
Guangzhou,23.13,113.26,China,CN,admin,26940000,1156237133
Mumbai,19.0761,72.8775,India,IN,admin,24973000,1356226629
Manila,14.5958,120.9772,Philippines,PH,primary,24922000,1608618140
Shanghai,31.1667,121.4667,China,CN,admin,24073000,1156073548
Sao Paulo,-23.55,-46.6333,Brazil,BR,admin,23086000,1076532519
Seoul,37.56,126.99,South Korea,KR,primary,23016000,1410836482
Mexico City,19.4333,-99.1333,Mexico,MX,primary,21804000,1484247881
Cairo,30.0444,31.2358,Egypt,EG,primary,20296000,1818253931
New York,40.6943,-73.9249,United States,US,,18972871,1840034016
Dhaka,23.7639,90.3889,Bangladesh,BD,primary,18627000,1050529279
Beijing,39.904,116.4075,China,CN,primary,18522000,1156228865
Kolkata,22.5675,88.37,India,IN,admin,18502000,1356060520
Bangkok,13.7525,100.4942,Thailand,TH,primary,18007000,1764068610
Shenzhen,22.535,114.054,China,CN,minor,17619000,1156158707
Moscow,55.7558,37.6178,Russia,RU,primary,17332000,1643318494
Buenos Aires,-34.5997,-58.3819,Argentina,AR,primary,16710000,1032717330
Lagos,6.455,3.3841,Nigeria,NG,minor,16637000,1566593751
Istanbul,41.0136,28.955,Turkey,TR,admin,16079000,1792756324
Karachi,24.86,67.01,Pakistan,PK,admin,15738000,1586129469
Bangalore,12.9789,77.5917,India,IN,admin,15386000,1356410365
Ho Chi Minh City,10.7756,106.7019,Vietnam,VN,admin,15136000,1704774326
Osaka,34.6939,135.5022,Japan,JP,admin,15126000,1392419823
Chengdu,30.66,104.0633,China,CN,admin,14645000,1156421555
Tehran,35.6892,51.3889,Iran,IR,primary,14148000,1364305026
Kinshasa,-4.325,15.3222,Congo (Kinshasa),CD,primary,12836000,1180000363
Rio de Janeiro,-22.9111,-43.2056,Brazil,BR,admin,12592000,1076887657
Chennai,13.0825,80.275,India,IN,admin,12395000,1356374944
Xi'an,34.2667,108.9,China,CN,admin,12328000,1156244079
Lahore,31.5497,74.3436,Pakistan,PK,admin,12306000,1586801463
Chongqing,29.55,106.5069,China,CN,admin,12135000,1156936556
Los Angeles,34.1141,-118.4068,United States,US,,12121244,1840020491
Baoding,38.8671,115.4845,China,CN,,11860000,1156256829
London,51.5072,-0.1275,United Kingdom,GB,primary,11262000,1826645935
Paris,48.8567,2.3522,France,FR,primary,11060000,1250015082
Linyi,35.1041,118.3502,China,CN,,11018365,1156086320
Dongguan,23.0475,113.7493,China,CN,minor,10646000,1156478242
Hyderabad,17.385,78.4867,India,IN,admin,10494000,1356871768
Tianjin,39.1467,117.2056,China,CN,admin,10368000,1156174046
Lima,-12.06,-77.0375,Peru,PE,primary,10320000,1604728603
Wuhan,30.5872,114.2881,China,CN,admin,10251000,1156117184
Nanyang,32.9987,112.5292,China,CN,,10013600,1156192287
Hangzhou,30.25,120.1675,China,CN,admin,9523000,1156275243
Foshan,23.0292,113.1056,China,CN,minor,9498863,1156738403
Nagoya,35.1833,136.9,Japan,JP,admin,9197000,1392407472
Taipei,25.0375,121.5625,Taiwan,TW,primary,9078000,1158881289
Tongshan,34.261,117.1859,China,CN,minor,9083790,1156241678
Luanda,-8.8383,13.2344,Angola,AO,primary,9051000,1024949724
Zhoukou,33.625,114.6418,China,CN,minor,9026015,1156272098
Ganzhou,25.8292,114.9336,China,CN,minor,8970014,1156832475
Kuala Lumpur,3.1478,101.6953,Malaysia,MY,primary,8911000,1458988644
Heze,35.2333,115.4333,China,CN,minor,8795939,1156225008
Quanzhou,24.9139,118.5858,China,CN,minor,8782285,1156829655
Chicago,41.8375,-87.6866,United States,US,,8595181,1840000494
Nanjing,32.0608,118.7789,China,CN,admin,8422000,1156644065
Jining,35.4,116.5667,China,CN,,8357897,1156504601
Hanoi,21.0283,105.8542,Vietnam,VN,primary,8246600,1704413791
Pune,18.5203,73.8567,India,IN,,8231000,1356081074
Fuyang,32.8986,115.8045,China,CN,,8200264,1156248008
Ahmedabad,23.03,72.58,India,IN,minor,8009000,1356304381
Johannesburg,-26.2044,28.0456,South Africa,ZA,admin,8000000,1710550792
Bogota,4.7111,-74.0722,Colombia,CO,primary,7968095,1170483426
Dar es Salaam,-6.8161,39.2803,Tanzania,TZ,primary,7962000,1834843853
Shenyang,41.8025,123.4281,China,CN,admin,7964000,1156309382
Khartoum,15.5006,32.56,Sudan,SD,primary,7869000,1729268475
Shangqiu,34.4259,115.6467,China,CN,,7816831,1156805441
Cangzhou,38.3037,116.8452,China,CN,,7544300,1156698069
Hong Kong,22.3,114.2,Hong Kong,HK,primary,7450000,1344982653
Shaoyang,27.2418,111.4725,China,CN,,7370500,1156310366
Zhanjiang,21.1967,110.4031,China,CN,minor,7332000,1156502170
Yancheng,33.3936,120.1339,China,CN,minor,7260240,1156995410
Hengyang,26.8968,112.5857,China,CN,,7243400,1156696884
Riyadh,24.6333,46.7167,Saudi Arabia,SA,primary,7237000,1682999334
Zhumadian,32.9773,114.0253,China,CN,,7231234,1156184822
Santiago,-33.4372,-70.6506,Chile,CL,primary,7171000,1152554349
Xingtai,37.0659,114.4753,China,CN,,7111106,1156294952
Chattogram,22.335,91.8325,Bangladesh,BD,admin,7000000,1050830722
Bijie,27.3019,105.2863,China,CN,,6899636,1156018927
Shangrao,28.4419,117.9633,China,CN,minor,6810700,1156405492
Zunyi,27.705,106.9336,China,CN,,6606675,1156539782
Surat,21.1702,72.8311,India,IN,,6538000,1356758738
Surabaya,-7.2458,112.7378,Indonesia,ID,admin,6499000,1360484663
Huanggang,30.45,114.875,China,CN,minor,6333000,1156200037
Maoming,21.6618,110.9178,China,CN,minor,6313200,1156568722
Nanchong,30.7991,106.0784,China,CN,minor,6278614,1156762337
Xinyang,32.1264,114.0672,China,CN,,6234401,1156273453
Madrid,40.4169,-3.7033,Spain,ES,primary,6211000,1724616994
Baghdad,33.3153,44.3661,Iraq,IQ,primary,6183000,1368596238
Qujing,25.5102,103.8029,China,CN,,6155400,1156747998
Jieyang,23.5533,116.3649,China,CN,minor,6089400,1156260378
Singapore,1.3,103.8,Singapore,SG,primary,5983000,1702341327
Prayagraj,25.4358,81.8464,India,IN,,5954391,1356718332
Liaocheng,36.45,115.9833,China,CN,minor,5952128,1156006600
Dalian,38.9,121.6,China,CN,,5871474,1156175472
Yulin,22.6293,110.1507,China,CN,minor,5849700,1156901312
Changde,29.0397,111.6839,China,CN,minor,5827200,1156449091
Qingdao,36.1167,120.4,China,CN,minor,5818255,1156112588
Douala,4.05,9.7,Cameroon,CM,admin,5768400,1120494607
Miami,25.784,-80.2101,United States,US,,5711945,1840015149
Nangandao,35.2992,113.8851,China,CN,minor,5708191,1156127660
Pudong,31.2231,121.5397,China,CN,minor,5681512,1156644508
Xiangyang,32.0654,112.1531,China,CN,minor,5680000,1156107325
Dallas,32.7935,-96.7667,United States,US,,5668165,1840019440
Houston,29.786,-95.3885,United States,US,,5650910,1840020925
Zhengzhou,34.7492,113.6605,China,CN,admin,5621593,1156183137
Lu'an,31.7542,116.5078,China,CN,minor,5611701,1156499624
Dezhou,37.4513,116.3105,China,CN,minor,5611194,1156524080
Jinan,36.6667,116.9833,China,CN,admin,5606374,1156972469
Giza,29.987,31.2118,Egypt,EG,admin,5598402,1818925479
Zhaotong,27.3328,103.7144,China,CN,,5591000,1156924687
Yichun,27.8041,114.383,China,CN,minor,5573200,1156229590
Nairobi,-1.2864,36.8172,Kenya,KE,primary,5545000,1404000661
Guadalajara,20.6767,-103.3475,Mexico,MX,admin,5525000,1484950208
Philadelphia,40.0077,-75.1339,United States,US,,5512873,1840000673
Ankara,39.93,32.85,Turkey,TR,primary,5503985,1792572891
Tai'an,36.2001,117.0809,China,CN,,5494207,1156095188
Dazhou,31.2152,107.4947,China,CN,minor,5468097,1156834076
Langfang,39.5196,116.7006,China,CN,,5464087,1156109017
Yongzhou,26.4515,111.5953,China,CN,,5452100,1156694479
Toronto,43.7417,-79.3733,Canada,CA,admin,5429524,1124279679
Suihua,46.6384,126.9808,China,CN,minor,5418153,1156235493
Saint Petersburg,59.95,30.3167,Russia,RU,admin,5384342,1643616350
Qiqihar,47.3398,123.9512,China,CN,minor,5367003,1156775905
Suzhou,33.6333,116.9683,China,CN,,5352924,1156871297
Monterrey,25.6667,-100.3,Mexico,MX,admin,5341171,1484559591
Belo Horizonte,-19.9167,-43.9333,Brazil,BR,admin,5328000,1076967355
Weinan,34.4996,109.4684,China,CN,minor,5286077,1156903687
Rangoon,16.795,96.16,Myanmar,MM,primary,5209541,1104616656
Zhangzhou,24.5093,117.6612,China,CN,minor,5140000,1156241637
Yuncheng,35.0304,110.998,China,CN,,5134779,1156705644
Xianyang,34.35,108.7167,China,CN,minor,5096001,1156120117
Guilin,25.2819,110.2864,China,CN,minor,5085500,1156235364
Atlanta,33.7628,-84.422,United States,US,admin,5046555,1840013660
Taizhou,32.4831,119.9,China,CN,minor,5031000,1156119229
Kashan,33.9833,51.4333,Iran,IR,minor,5000000,1364006067
Bozhou,33.8626,115.7742,China,CN,,4996844,1156356860
Abidjan,5.3167,-4.0333,Côte d'Ivoire,CI,primary,4980000,1384207980
Suqian,33.9331,118.2831,China,CN,,4986192,1156212349
Huaihua,27.5494,109.9592,China,CN,,4979600,1156353465
Ji'an,27.1172,114.9793,China,CN,minor,4956600,1156278215
Xiaoganzhan,30.9273,113.911,China,CN,,4921000,1156002290
Pingdingshan,33.735,113.2999,China,CN,,4904701,1156735124
Jiujiang,29.7048,116.0021,China,CN,minor,4896800,1156206041
Alexandria,31.1975,29.8925,Egypt,EG,admin,4870000,1818695837
Mianyang,31.4669,104.7385,China,CN,minor,4868243,1156417758
Sydney,-33.8678,151.21,Australia,AU,admin,4840600,1036074917
Huanglongsi,34.795,114.345,China,CN,,4824016,1156198356
Washington,38.9047,-77.0163,United States,US,primary,4810669,1840006060
Barcelona,41.3825,2.1769,Spain,ES,admin,4800000,1724594040
Changsha,28.1987,112.9709,China,CN,admin,4766296,1156961497
Chenzhou,25.7989,113.0267,China,CN,minor,4744500,1156291915
Anqing,30.5,117.0333,China,CN,minor,4723000,1156238875
Jiangmen,22.5833,113.0833,China,CN,minor,4630300,1156105613
Xinpu,34.5906,119.1801,China,CN,minor,4599360,1156035381
Yibin,28.7596,104.64,China,CN,minor,4588804,1156107603
Yangzhou,32.3912,119.4363,China,CN,,4559797,1156818601
Melbourne,-37.8142,144.9631,Australia,AU,admin,4529500,1036533631
Berlin,52.52,13.405,Germany,DE,primary,4473101,1276451290
Hengshui,37.7348,115.686,China,CN,,4472000,1156803028
Timbio,2.3445,-76.6839,Colombia,CO,minor,4444444,1170815311
Kunming,25.0433,102.7061,China,CN,admin,4422686,1156477539
Yiyang,28.5833,112.3333,China,CN,,4413800,1156218615
Guigang,23.0961,109.6092,China,CN,minor,4409200,1156895251
Changchun,43.9,125.2,China,CN,admin,4408154,1156078103
Jiangguanchi,34.0244,113.8201,China,CN,minor,4379998,1156235735
Casablanca,33.5333,-7.5833,Morocco,MA,admin,4370000,1504175315
Meizhou,24.2998,116.1191,China,CN,minor,4378800,1156361028
Zhangjiakou,40.8108,114.8811,China,CN,minor,4345485,1156800221
Chifeng,42.2663,118.9223,China,CN,minor,4341245,1156277458
Urumqi,43.8225,87.6125,China,CN,admin,4335017,1156051276
Suzhou,31.3,120.6194,China,CN,minor,4330000,1156029196
Izmir,38.42,27.14,Turkey,TR,admin,4320519,1792725579
Linfen,36.0812,111.5087,China,CN,,4316610,1156416074
Shantou,23.3735,116.6941,China,CN,minor,4312192,1156457499
Kabul,34.5253,69.1783,Afghanistan,AF,primary,4273156,1004993580
Mogadishu,2.0392,45.3419,Somalia,SO,primary,4249083,1706893395
Luzhou,28.8918,105.4409,China,CN,minor,4218427,1156582079
Hefei,31.8639,117.2808,China,CN,admin,4216940,1156332710
Boston,42.3188,-71.0852,United States,US,admin,4208580,1840000455
Liuzhou,24.3264,109.4281,China,CN,minor,4157934,1156360785
Zhaoqing,23.05,112.4667,China,CN,minor,4151700,1156170144
Xiaoxita,30.7083,111.2803,China,CN,minor,4137900,1156764447
Shijiazhuang,38.0422,114.5086,China,CN,admin,4098243,1156217541
Ningbo,29.875,121.5492,China,CN,minor,4087523,1156170787
Fuzhou,27.9814,116.3577,China,CN,,4047200,1156915325
Phoenix,33.5722,-112.0892,United States,US,admin,4047095,1840020568
Zhuzhou,27.8407,113.1469,China,CN,minor,4020800,1156041962
Amman,31.9497,35.9328,Jordan,JO,primary,4007526,1400522593
Chuzhou,32.3062,118.3115,China,CN,,3987054,1156036420
Jeddah,21.5433,39.1728,Saudi Arabia,SA,,3976000,1682926944
Qingyuan,23.6842,113.0507,China,CN,minor,3969473,1156135890
Loudi,27.7378,111.9974,China,CN,,3931800,1156010654
Binzhou,37.3806,118.0125,China,CN,,3928568,1156564962
Deyang,31.1289,104.395,China,CN,minor,3877000,1156127147
Taiyuan,37.8733,112.5425,China,CN,admin,3875053,1156632014
Kano,12,8.5167,Nigeria,NG,admin,3848885,1566422868
Wuhu,31.334,118.3622,China,CN,minor,3842100,1156315512
Nanning,22.8192,108.315,China,CN,admin,3837978,1156605439
Harbin,45.75,126.6333,China,CN,admin,3830000,1156241528
Abuja,9.0667,7.4833,Nigeria,NG,primary,3770000,1566342270
Yokohama,35.4442,139.6381,Japan,JP,admin,3757630,1392118339
Baojishi,34.3609,107.1751,China,CN,,3738700,1156101096
Zaozhuang,34.8667,117.55,China,CN,,3729140,1156796454
Xiamen,24.4797,118.0819,China,CN,minor,3707090,1156212809
Neijiang,29.5872,105.0635,China,CN,minor,3702847,1156516335
Fuzhou,26.0769,119.2917,China,CN,admin,3671192,1156188037
Baicheng,23.901,106.6194,China,CN,minor,3669400,1156981113
Anshan,41.1066,122.9895,China,CN,,3645884,1156901825
Medan,3.5894,98.6739,Indonesia,ID,admin,3632000,1360543171
Yulinshi,38.2655,109.7388,China,CN,,3634750,1156280672
Wenzhou,27.9991,120.6561,China,CN,,3604446,1156188829
Changzhou,31.8122,119.9692,China,CN,minor,3601079,1156185511
Puyang,35.7639,115.03,China,CN,minor,3598740,1156431924
Jiaozuo,35.229,113.2304,China,CN,,3590700,1156157854
Nanchang,28.6842,115.8872,China,CN,admin,3576547,1156198892
Ibadan,7.3964,3.9167,Nigeria,NG,admin,3552000,1566366407
Hechi,24.6928,108.085,China,CN,minor,3545700,1156167204
Detroit,42.3834,-83.1024,United States,US,,3522856,1840003971
Montreal,45.5089,-73.5617,Canada,CA,,3519595,1124586170
Busan,35.18,129.075,South Korea,KR,admin,3453198,1410601465
Hohhot,40.8151,111.6629,China,CN,admin,3446100,1156210167
Seattle,47.6211,-122.3244,United States,US,,3438221,1840021117
Algiers,36.7539,3.0589,Algeria,DZ,primary,3415811,1012973369
Hanzhong,33.0794,107.026,China,CN,,3416196,1156382678
Tangshan,39.6292,118.1742,China,CN,,3399231,1156904299
Shiyan,32.6351,110.7755,China,CN,minor,3398000,1156383921
Lucknow,26.85,80.95,India,IN,admin,3382000,1356891790
Siping,43.1715,124.3644,China,CN,minor,3385156,1156063295
Mashhad,36.3,59.6,Iran,IR,admin,3372090,1364123206
Boankra,6.6944,-1.4028,Ghana,GH,,3348000,1288164978
Changzhi,36.1953,113.097,China,CN,minor,3334565,1156057944
Dubai,25.2631,55.2972,United Arab Emirates,AE,admin,3331420,1784736618
Qinzhou,21.95,108.6167,China,CN,minor,3304400,1156106602
Guiyang,26.5794,106.7078,China,CN,admin,3299724,1156932620
Bengbu,32.9354,117.3531,China,CN,,3296408,1156440668
San Francisco,37.7558,-122.4449,United States,US,,3290197,1840021543
Bazhou,31.8576,106.7559,China,CN,minor,3283148,1156271365
Qincheng,34.5809,105.7311,China,CN,minor,3262549,1156104017
Suining,30.5098,105.5737,China,CN,minor,3252619,1156655650
Wuxi,31.5667,120.2833,China,CN,minor,3245179,1156019650
Leshan,29.5854,103.7575,China,CN,,3235759,1156203130
Putian,25.4394,119.0103,China,CN,minor,3210714,1156811601
Zhenjiang,32.2109,119.4551,China,CN,minor,3210418,1156934125
Faisalabad,31.4167,73.0911,Pakistan,PK,minor,3203846,1586323916
Guang'an,30.4673,106.6336,China,CN,minor,3205476,1156377302
Tongren,27.7233,109.1885,China,CN,,3168800,1156803442
Santa Cruz,-17.7892,-63.1975,Bolivia,BO,admin,3151676,1068129363
Qinhuangdao,39.9398,119.5881,China,CN,,3146300,1156091093
Tongliao,43.6172,122.264,China,CN,minor,3139153,1156358686
Jinzhou,41.1144,121.1292,China,CN,,3126463,1156157151
Heyuan,23.7503,114.6923,China,CN,minor,3093900,1156665165
San Diego,32.8313,-117.1222,United States,US,,3084174,1840021990
Jaipur,26.9,75.8,India,IN,admin,3073350,1356293537
Xinzhou,38.4178,112.7233,China,CN,minor,3067501,1156617534
Lanzhou,36.0617,103.8318,China,CN,admin,3067141,1156280566
Wuzhou,23.4833,111.3167,China,CN,minor,3061100,1156620133
Athens,37.9842,23.7281,Greece,GR,primary,3041131,1300715560
Addis Ababa,9.03,38.74,Ethiopia,ET,primary,3041002,1231824991
Chaoyang,41.5757,120.4486,China,CN,,3044641,1156706927
Brasilia,-15.7939,-47.8828,Brazil,BR,primary,3039444,1076144436
Taichung,24.1439,120.6794,Taiwan,TW,admin,3033885,1158689622
Kuwait City,29.3697,47.9783,Kuwait,KW,primary,3000000,1414102075
Budapest,47.4925,19.0514,Hungary,HU,primary,2997958,1348611435
Shaoguan,24.8011,113.5927,China,CN,minor,2997600,1156617066
Shanwei,22.7664,115.3331,China,CN,minor,2993600,1156939010
Quezon City,14.63,121.03,Philippines,PH,admin,2960048,1608974097
Rizhao,35.4164,119.4331,China,CN,minor,2968365,1156032841
Kyiv,50.45,30.5233,Ukraine,UA,primary,2963199,1804382913
Sanaa,15.3483,44.2064,Yemen,YE,primary,2957000,1887750814
Meishan,30.0575,103.8381,China,CN,,2950545,1156185501
Incheon,37.4833,126.6333,South Korea,KR,admin,2936117,1410160313
Guatemala City,14.6099,-90.5252,Guatemala,GT,primary,2934841,1320197916
Birmingham,52.48,-1.9025,United Kingdom,GB,,2919600,1826423213
Zhongshan,22.5333,113.35,China,CN,minor,2909633,1156579621
Ningde,26.6617,119.5228,China,CN,minor,2910000,1156909802
Weihai,37.5,122.1,China,CN,minor,2906548,1156473300
Daqing,46.5979,125.008,China,CN,minor,2904532,1156403962
Bursa,40.1833,29.05,Turkey,TR,admin,2901396,1792903330
Salvador,-12.9747,-38.4767,Brazil,BR,admin,2886698,1076923789
Rome,41.8931,12.4828,Italy,IT,primary,2872800,1380382862
Haikou,20.02,110.32,China,CN,admin,2873358,1156183327
La Paz,-16.5,-68.15,Bolivia,BO,primary,2867504,1068000064
Xiangtan,27.8431,112.9228,China,CN,,2864800,1156195684
Pyongyang,39.0194,125.7381,North Korea,KP,primary,2863000,1408738594
Minneapolis,44.9635,-93.2678,United States,US,,2856952,1840007830
Omdurman,15.65,32.4833,Sudan,SD,,2805396,1729912179
Malang,-7.98,112.62,Indonesia,ID,,2795209,1360141408
Mudanjiang,44.5861,129.5997,China,CN,minor,2798723,1156249698
Stuttgart,48.7775,9.18,Germany,DE,admin,2787724,1276171358
Brooklyn,40.6501,-73.9496,United States,US,,2736074,1840034030
Kaohsiung,22.615,120.2975,Taiwan,TW,admin,2733566,1158331334
Guayaquil,-2.19,-79.8875,Ecuador,EC,admin,2723665,1218802178
Lisbon,38.7253,-9.15,Portugal,PT,primary,2719000,1620619017
Longyan,25.0881,117.0244,China,CN,minor,2723637,1156012979
Tieling,42.2841,123.8365,China,CN,,2717732,1156089994
Manchester,53.4794,-2.2453,United Kingdom,GB,,2705000,1826246335
Baotou,40.6562,109.8345,China,CN,,2709378,1156032751
Handan,36.6116,114.4894,China,CN,minor,2708015,1156957080
Cawnpore,26.4499,80.3319,India,IN,,2701324,1356575238
Dingxi,35.5806,104.6263,China,CN,minor,2698624,1156518274
Nanping,26.6448,118.1728,China,CN,minor,2690000,1156927445
Tampa,27.9945,-82.4447,United States,US,,2683956,1840015982
Zigong,29.3498,104.7645,China,CN,,2678899,1156023354
Maracaibo,10.6333,-71.6333,Venezuela,VE,admin,2658355,1862072711
Chaozhou,23.67,116.63,China,CN,minor,2656600,1156549118
Mbuji-Mayi,-6.15,23.6,Congo (Kinshasa),CD,admin,2643000,1180399586
Denver,39.762,-104.8758,United States,US,admin,2650725,1840018789
Gulou,26.0865,119.298,China,CN,minor,2606000,1156680279
Weifang,36.7167,119.1,China,CN,,2636154,1156912965
Huai'an,33.5058,119.1392,China,CN,,2632788,1156634228
Zibo,36.7831,118.0497,China,CN,,2631647,1156381094
Ankang,32.6877,109.0235,China,CN,,2629906,1156255711
Baoshan,25.1211,99.169,China,CN,,2627000,1156546994
Antananarivo,-18.9333,47.5167,Madagascar,MG,primary,2610000,1450978461
Huludao,40.7094,120.8378,China,CN,minor,2623541,1156580218
Munich,48.1375,11.575,Germany,DE,admin,2606021,1276692352
Yanjiang,30.1256,104.6397,China,CN,minor,2593843,1156217114
Santo Domingo,18.4764,-69.8933,Dominican Republic,DO,primary,2581827,1214636202
Sanming,26.2658,117.6302,China,CN,minor,2580000,1156294429
Tashkent,41.3111,69.2797,Uzbekistan,UZ,primary,2571668,1860331871
Longba,33.535,105.349,China,CN,,2567718,1156633259
Yangjiang,21.8556,111.9627,China,CN,minor,2555600,1156123172
Jiamusi,46.8081,130.3653,China,CN,minor,2552097,1156350864
Luohe,33.583,114.0109,China,CN,minor,2544266,1156330876
Lincang,23.8864,100.0871,China,CN,,2536000,1156044130
Medellin,6.2308,-75.5906,Colombia,CO,admin,2529403,1170680389
Xuanzhou,30.9475,118.7518,China,CN,,2532938,1156424311
Yunfu,22.9242,112.0353,China,CN,minor,2526900,1156057251
Shaoxing,30,120.5833,China,CN,minor,2521964,1156893449
Yantai,37.3997,121.2664,China,CN,,2511053,1156932948
Huizhou,23.1115,114.4152,China,CN,minor,2509243,1156203268
Lishui,28.45,119.9167,China,CN,minor,2507396,1156858793
Mirzapur,25.146,82.569,India,IN,,2496970,1356427908
Hamburg,53.55,10,Germany,DE,admin,2484800,1276041799
Guangyuan,32.4353,105.8398,China,CN,,2484122,1156084562
Cali,3.4206,-76.5222,Colombia,CO,admin,2471474,1170417589
Lusaka,-15.4167,28.2833,Zambia,ZM,primary,2467563,1894157390
Huangshi,30.2018,115.0326,China,CN,minor,2471700,1156234290
Xining,36.6239,101.7787,China,CN,admin,2467965,1156081448
Ouagadougou,12.3686,-1.5275,Burkina Faso,BF,primary,2453496,1854029208
Daegu,35.8717,128.6017,South Korea,KR,admin,2461002,1410095252
Fortaleza,-3.7275,-38.5275,Brazil,BR,admin,2452185,1076567885
Yaounde,3.8667,11.5167,Cameroon,CM,primary,2440462,1120298240
Jilin,43.8519,126.5481,China,CN,,2396000,1156646448
Dandong,40.1167,124.3833,China,CN,,2444697,1156178316
Zhuhai,22.2769,113.5678,China,CN,minor,2439585,1156722242
Lianshan,40.7523,120.828,China,CN,minor,2426000,1156046704
Yingkou,40.6653,122.2297,China,CN,minor,2428534,1156257074
Antalya,36.8874,30.7075,Turkey,TR,admin,2426356,1792988434
Nagpur,21.1497,79.0806,India,IN,admin,2405665,1356365743
Queens,40.7498,-73.7976,United States,US,,2405464,1840034002
Accra,5.55,-0.2,Ghana,GH,primary,2388000,1288299415
Bekasi,-6.2349,106.9923,Indonesia,ID,,2381053,1360006015
Ghaziabad,28.67,77.42,India,IN,,2375820,1356691871
Yuxi,24.3495,102.5432,China,CN,minor,2386000,1156682309
Luoyang,34.6587,112.4245,China,CN,,2372571,1156069315
Brisbane,-27.4678,153.0281,Australia,AU,admin,2360241,1036192929
Anshun,26.2456,105.934,China,CN,,2353100,1156415948
Depok,-6.394,106.8225,Indonesia,ID,,2330333,1360962899
Shangzhou,33.868,109.9244,China,CN,,2341742,1156091241
Huainan,32.4831,117.0164,China,CN,,2333896,1156877299
Colombo,6.9344,79.8428,Sri Lanka,LK,primary,2323826,1144251314
Kuaidamao,41.7302,125.9471,China,CN,minor,2324439,1156106507
Baku,40.3667,49.8352,Azerbaijan,AZ,primary,2300500,1031946365
Fukuoka,33.5833,130.4,Japan,JP,admin,2286000,1392576294
Yan'an,36.5952,109.4863,China,CN,,2282581,1156546342
Jincheng,35.4906,112.8483,China,CN,minor,2279146,1156163376
Vancouver,49.25,-123.1,Canada,CA,,2264823,1124825478
Nantong,31.9829,120.8873,China,CN,minor,2261382,1156045365
Tangerang,-6.1783,106.6319,Indonesia,ID,,2237006,1360002844
Caracas,10.4806,-66.9036,Venezuela,VE,primary,2245744,1862748204
Sanmenxia,34.7736,111.195,China,CN,,2234018,1156529682
Laibin,23.7333,109.2333,China,CN,minor,2233900,1156925734
Konya,37.8667,32.4833,Turkey,TR,admin,2232374,1792014004
Manaus,-3.1,-60.0167,Brazil,BR,admin,2219580,1076607274
Esfahan,32.6447,51.6675,Iran,IR,admin,2219343,1364023865
Qinbaling,35.7278,107.64,China,CN,,2211191,1156032582
Baltimore,39.3051,-76.6144,United States,US,,2205092,1840001592
Ma'anshan,31.6858,118.5101,China,CN,minor,2202899,1156847452
Shengli,37.45,118.4667,China,CN,minor,2193518,1156672254
Gaoping,30.7824,106.1281,China,CN,minor,2174000,1156522457
Taizhou,28.6583,121.4221,China,CN,minor,2162461,1156322307
Harare,-17.8292,31.0522,Zimbabwe,ZW,primary,2150000,1716196799
Kowloon,22.3167,114.1833,Hong Kong,HK,,2108419,1344538284
Las Vegas,36.2333,-115.2654,United States,US,,2150373,1840020364
Havana,23.1367,-82.3589,Cuba,CU,primary,2141652,1192752771
Perth,-31.9559,115.8606,Australia,AU,admin,2141834,1036178956
Phnom Penh,11.5694,104.9211,Cambodia,KH,primary,2129371,1116260534
Puning,23.2993,116.1586,China,CN,,2118200,1156756494
Huaibei,33.9562,116.789,China,CN,,2114276,1156142626
Qingyang,24.8141,118.5792,China,CN,minor,2111000,1156273372
Haiphong,20.8651,106.6838,Vietnam,VN,admin,2103500,1704000623
Chongzuo,22.4167,107.3667,China,CN,minor,2099400,1156438670
Rawalpindi,33.6,73.0333,Pakistan,PK,minor,2098231,1586344001
Yushan,31.3867,120.9766,China,CN,minor,2092496,1156245000
St. Louis,38.6359,-90.2451,United States,US,,2092481,1840001651
Kumasi,6.6667,-1.6167,Ghana,GH,admin,2069350,1288181103
Vadodara,22.3,73.2,India,IN,,2065771,1356705249
Hezhou,24.4164,111.5478,China,CN,minor,2072600,1156459799
Pingliang,35.5412,106.6819,China,CN,minor,2068033,1156216904
Portland,45.5371,-122.65,United States,US,,2036875,1840019941
Vishakhapatnam,17.7042,83.2978,India,IN,,2035922,1356692563
Gujranwala,32.1567,74.19,Pakistan,PK,minor,2027001,1586400472
Baicheng,45.6148,122.832,China,CN,minor,2032356,1156435764
Gaziantep,37.0628,37.3792,Turkey,TR,admin,2028563,1792911843
Fushun,41.8708,123.8917,China,CN,,2024000,1156857743
Riverside,33.9381,-117.3949,United States,US,,2022285,1840020551
Bamako,12.6458,-7.9922,Mali,ML,primary,2009109,1466965925
Quito,-0.22,-78.5125,Ecuador,EC,primary,2011388,1218441993
Minsk,53.9,27.5667,Belarus,BY,primary,2009786,1112348503
Tijuana,32.525,-117.0333,Mexico,MX,minor,2002000,1484708778
Bamenda,5.9614,10.1517,Cameroon,CM,admin,2000000,1120909610
Boosaaso,11.2886,49.1819,Somalia,SO,admin,2000000,1706054548
Indore,22.7167,75.8472,India,IN,,1994397,1356402812
Sanliurfa,37.1583,38.7917,Turkey,TR,admin,1985753,1792937570
Vienna,48.2083,16.3725,Austria,AT,primary,1973403,1040261752
Karaj,35.8272,50.9489,Iran,IR,admin,1973470,1364258511
Kananga,-5.897,22.4488,Congo (Kinshasa),CD,admin,1971704,1180172460
Peshawar,34.0144,71.5675,Pakistan,PK,admin,1970042,1586851102
Sapporo,43.0667,141.35,Japan,JP,admin,1961690,1392000195
Ecatepec,19.6097,-99.06,Mexico,MX,minor,1929926,1484003694
Pingxiang,27.6333,113.85,China,CN,minor,1933200,1156066465
Orlando,28.4773,-81.337,United States,US,,1927699,1840015099
Aleppo,36.2,37.16,Syria,SY,admin,1916781,1760366651
Sacramento,38.5677,-121.4685,United States,US,admin,1924167,1840021491
Almaty,43.2775,76.8958,Kazakhstan,KZ,admin,1916822,1398351701
San Juan,18.3985,-66.061,Puerto Rico,PR,primary,1915105,1630035577
San Antonio,29.4632,-98.5238,United States,US,,1910785,1840022220
Yinchuan,38.4795,106.2254,China,CN,admin,1901793,1156359072
Thane,19.1972,72.9722,India,IN,,1886941,1356681152
Santos,-23.9369,-46.325,Brazil,BR,,1897551,1076033299
Blantyre,-15.7861,35.0058,Malawi,MW,admin,1895973,1454145012
Bucharest,44.4325,26.1039,Romania,RO,primary,1883425,1642414442
Curitiba,-25.4297,-49.2711,Brazil,BR,admin,1879355,1076701712
Multan,30.1978,71.4697,Pakistan,PK,minor,1871843,1586256291
Tainan,22.9833,120.1833,Taiwan,TW,admin,1874686,1158061376
Xiping,40.082,113.2981,China,CN,minor,1873000,1156898522
Port Harcourt,4.8242,7.0336,Nigeria,NG,admin,1865000,1566070649
Warsaw,52.23,21.0111,Poland,PL,primary,1860281,1616024847
Jixi,45.2937,130.965,China,CN,minor,1862165,1156393765
Saidu Sharif,34.75,72.3572,Pakistan,PK,minor,1860310,1586619596
Liaoyang,41.2643,123.1772,China,CN,,1858768,1156202749
Beihai,21.4667,109.1,China,CN,minor,1853227,1156421449
Meru,0.05,37.65,Kenya,KE,admin,1833000,1404588252
Brazzaville,-4.2694,15.2714,Congo (Brazzaville),CG,primary,1827000,1178340306
Fuxin,42.0127,121.6486,China,CN,,1819339,1156141954
Wuwei,37.9278,102.6329,China,CN,minor,1815059,1156760291
Mersin,36.8,34.6333,Turkey,TR,admin,1814468,1792520282
Bhopal,23.25,77.4167,India,IN,admin,1798218,1356734039
Lubumbashi,-11.6647,27.4794,Congo (Kinshasa),CD,admin,1786397,1180506234
Denpasar,-8.65,115.2167,Indonesia,ID,admin,1779122,1360848527
Davao,7.0667,125.6,Philippines,PH,admin,1776949,1608906877
Shuyangzha,34.1299,118.7734,China,CN,,1770000,1156051957
Adana,37,35.3213,Turkey,TR,admin,1765981,1792783772
Damascus,33.5131,36.2919,Syria,SY,primary,1754000,1760685964
Brussels,50.8467,4.3525,Belgium,BE,primary,1743000,1056469830
Hyderabad City,25.3792,68.3683,Pakistan,PK,minor,1732693,1586185019
Diyarbakir,37.91,40.24,Turkey,TR,admin,1732396,1792536241
San Jose,37.3012,-121.848,United States,US,,1729879,1840021570
Chinchvad,18.6186,73.8037,India,IN,,1729320,1356475483
Montevideo,-34.8836,-56.1819,Uruguay,UY,primary,1719453,1858107000
Pittsburgh,40.4397,-79.9763,United States,US,,1720279,1840001254
Shuozhou,39.3408,112.4292,China,CN,minor,1714857,1156227167
Cincinnati,39.1413,-84.506,United States,US,,1712287,1840003814
Benxi,41.292,123.761,China,CN,,1709538,1156097909
Baiyin,36.5448,104.1766,China,CN,minor,1708751,1156140738
Mosul,36.34,43.13,Iraq,IQ,admin,1694000,1368194914
Manhattan,40.7834,-73.9662,United States,US,,1694263,1840034000
Caloocan City,14.65,120.97,Philippines,PH,admin,1661584,1608897690
Kampala,0.3136,32.5811,Uganda,UG,primary,1680600,1800406299
Patna,25.6,85.1,India,IN,admin,1684222,1356821429
Tegucigalpa,14.1,-87.2167,Honduras,HN,primary,1682725,1340344059
Cleveland,41.4764,-81.6805,United States,US,,1683059,1840000596
Sanzhou,30.82,108.4,China,CN,,1680000,1156025536
Changshu,31.65,120.7333,China,CN,,1677050,1156901538
Mecca,21.4225,39.8233,Saudi Arabia,SA,admin,1675368,1682169241
Heihe,50.2458,127.4886,China,CN,minor,1673899,1156339225
Jingdezhen,29.2942,117.2036,China,CN,minor,1673200,1156038165
Conakry,9.5092,-13.7122,Guinea,GN,primary,1667864,1324568159
Recife,-8.05,-34.9,Brazil,BR,admin,1653461,1076137337
Indianapolis,39.7771,-86.1458,United States,US,admin,1659305,1840030084
Austin,30.3005,-97.7522,United States,US,admin,1659251,1840019590
Sangereng,-6.2889,106.7181,Indonesia,ID,,1644899,1360029147
Kansas City,39.1238,-94.5541,United States,US,,1644497,1840008535
Zhongli,24.965,121.2168,Taiwan,TW,,1632616,1158025380
Novosibirsk,55.0333,82.9167,Russia,RU,admin,1625631,1643399240
Bilaspur,22.09,82.15,India,IN,,1625502,1356820491
Semarang,-6.9667,110.4167,Indonesia,ID,admin,1621384,1360745537
Ludhiana,30.91,75.85,India,IN,,1618879,1356929498
Narayanganj,23.62,90.5,Bangladesh,BD,,1572386,1050424421
Stockholm,59.3294,18.0686,Sweden,SE,primary,1611776,1752425602
Chengtangcun,35.0833,117.15,China,CN,,1603659,1156883901
Agra,27.18,78.02,India,IN,,1585704,1356187395
Balandougou,13.3558,-9.5517,Mali,ML,,1596882,1466367944
Agwar,27.18,78.02,India,IN,,1585705,1356151564
Leon de los Aldama,21.1167,-101.6833,Mexico,MX,minor,1579803,1484811199
Yopougon,5.3167,-4.0667,Côte d'Ivoire,CI,,1571065,1384759584
Puebla,19.0333,-98.1833,Mexico,MX,admin,1576259,1484416394
Madurai,9.9252,78.1198,India,IN,minor,1561129,1356257289
Hebi,35.7497,114.2887,China,CN,,1569208,1156114258
Cordoba,-31.4167,-64.1833,Argentina,AR,admin,1565112,1032803249
Shiraz,29.61,52.5425,Iran,IR,admin,1565572,1364432238
Jamshedpur,22.7925,86.1842,India,IN,,1558000,1356501259
Tabriz,38.0814,46.3006,Iran,IR,admin,1558693,1364141756
Huzhou,30.8925,120.0875,China,CN,minor,1558826,1156335543
Columbus,39.9862,-82.9855,United States,US,admin,1556848,1840003760
Sofia,42.7,23.33,Bulgaria,BG,primary,1547779,1100762037
Kawasaki,35.5167,139.7,Japan,JP,,1539522,1392003356
San Jose,9.9325,-84.08,Costa Rica,CR,primary,1543000,1188749877
Aba,5.1167,7.3667,Nigeria,NG,minor,1530000,1566262000
Palembang,-2.9861,104.7556,Indonesia,ID,admin,1535952,1360902897
Zhangjiajie,29.1255,110.4844,China,CN,minor,1537900,1156072884
Kobe,34.69,135.1956,Japan,JP,admin,1521707,1392978082
Jiaxing,30.7522,120.75,China,CN,minor,1518654,1156491661
Charlotte,35.2083,-80.8303,United States,US,,1516107,1840014557
Guiping,23.4,110.0833,China,CN,minor,1511011,1156165517
Lianjiang,21.6146,110.2794,China,CN,,1509400,1156944106
Ximeicun,24.9633,118.3811,China,CN,,1508000,1156173813
Jianguang,28.1958,115.7833,China,CN,,1507402,1156545200
Yucheng,29.9888,103.0007,China,CN,minor,1507258,1156817119
Panama City,8.9833,-79.5167,Panama,PA,primary,1500189,1591672475
Xushan,30.1697,121.2665,China,CN,minor,1502000,1156046916
Belem,-1.4558,-48.5039,Brazil,BR,admin,1499641,1076646823
Virginia Beach,36.7335,-76.0435,United States,US,,1500764,1840003871
Leizhou,20.9147,110.0806,China,CN,minor,1494700,1156863840
Gwangju,35.1653,126.8486,South Korea,KR,admin,1490092,1410000087
Nasik,20,73.78,India,IN,,1486053,1356562598
Porto Alegre,-30.0331,-51.23,Brazil,BR,admin,1484941,1076658221
Valencia,10.1667,-68,Venezuela,VE,admin,1484430,1862309871
Onitsha,6.1667,6.7833,Nigeria,NG,minor,1483000,1566593483
Abu Dhabi,24.4667,54.3667,United Arab Emirates,AE,primary,1483000,1784176710
Daejeon,36.351,127.385,South Korea,KR,admin,1475221,1410993875
Zapopan,20.7167,-103.4,Mexico,MX,minor,1476491,1484198680
Bronx,40.8501,-73.8662,United States,US,,1472654,1840033999
Yekaterinburg,56.8356,60.6128,Russia,RU,admin,1468833,1643582706
Huazhou,32.6832,112.079,China,CN,minor,1468061,1156796734
Kyoto,35.0117,135.7683,Japan,JP,admin,1464890,1392622735
Jinhua,29.1046,119.6494,China,CN,minor,1463990,1156547188
Amsterdam,52.3728,4.8936,Netherlands,NL,primary,1459402,1528355309
Shuangyashan,46.6388,131.1545,China,CN,minor,1462626,1156245904
Pizhou,34.3422,118.0097,China,CN,,1458038,1156114238
El Kelaa des Srarhna,32.0481,-7.4083,Morocco,MA,,1450021,1504846488
Dakar,14.6928,-17.4467,Senegal,SN,primary,1438725,1686604760
Kharkiv,49.9925,36.2311,Ukraine,UA,admin,1446107,1804588111
Yangshe,31.8775,120.5512,China,CN,minor,1432044,1156203000
Guyuan,36.008,106.2782,China,CN,,1426000,1156817541
Rui'an,27.778,120.6526,China,CN,,1424667,1156993705
Khulna,22.8167,89.55,Bangladesh,BD,admin,1400689,1050667339
Muscat,23.6139,58.5922,Oman,OM,primary,1421409,1512035506
Wenling,28.3797,121.3718,China,CN,,1416199,1156052493
Gaozhou,21.9135,110.8481,China,CN,minor,1414100,1156785303
Faridabad,28.4167,77.3,India,IN,,1404653,1356013205
Chizhou,30.6583,117.4849,China,CN,minor,1402518,1156131504
Tel Aviv-Yafo,32.08,34.78,Israel,IL,admin,1388400,1376401542
Ulaanbaatar,47.9203,106.9172,Mongolia,MN,primary,1396288,1496024767
Goiania,-16.6667,-49.25,Brazil,BR,admin,1393575,1076034054
Fuqing,25.7232,119.3735,China,CN,minor,1390487,1156893569
Kayseri,38.7225,35.4875,Turkey,TR,admin,1389680,1792945815
Wuzhong,37.9874,106.1919,China,CN,minor,1382713,1156139322
Belgrade,44.82,20.46,Serbia,RS,primary,1378682,1688374696
Pingdu,36.7833,119.9556,China,CN,,1378900,1156157078
Milan,45.4669,9.19,Italy,IT,admin,1366180,1380724377
Aurangabad,19.88,75.32,India,IN,,1371330,1356840670
Copenhagen,55.6761,12.5683,Denmark,DK,primary,1366301,1208763942
Yangquan,37.8576,113.5762,China,CN,minor,1368502,1156157844
Yutan,28.3147,112.554,China,CN,minor,1368117,1156592042
Huangshan,29.7132,118.3151,China,CN,minor,1358980,1156527426
Auckland,-36.8406,174.74,New Zealand,NZ,admin,1346091,1554435911
Makassar,-5.1619,119.4362,Indonesia,ID,admin,1338663,1360051337
Santiago,19.4572,-70.6889,Dominican Republic,DO,admin,1343423,1214985348
Milwaukee,43.0642,-87.9675,United States,US,,1340981,1840003046
Rajkot,22.3,70.7833,India,IN,,1335397,1356317190
Prague,50.0875,14.4214,Czechia,CZ,primary,1335084,1203744823
Samsun,41.2903,36.3336,Turkey,TR,admin,1335716,1792169057
Liangshi,27.2578,111.7351,China,CN,,1335900,1156366507
Barranquilla,10.9833,-74.8019,Colombia,CO,admin,1326588,1170179113
Saitama,35.8614,139.6456,Japan,JP,admin,1325843,1392017719
Guarulhos,-23.4628,-46.5328,Brazil,BR,,1324781,1076730420
Al Basrah,30.515,47.81,Iraq,IQ,admin,1326564,1368714645
Mandalay,21.9831,96.0844,Myanmar,MM,admin,1319452,1104468217
Juarez,31.7386,-106.487,Mexico,MX,minor,1321004,1484840083
Xintai,35.91,117.78,China,CN,,1315942,1156761230
Wusong,30.9333,117.7667,China,CN,minor,1311726,1156264408
Meerut,28.98,77.71,India,IN,,1305429,1356390476
Yushu,44.8249,126.5451,China,CN,minor,1304436,1156326773
Rongcheng,26.2312,104.0966,China,CN,,1302891,1156122888
Huazhou,21.654,110.6294,China,CN,,1302100,1156282637
Adelaide,-34.9275,138.6,Australia,AU,admin,1295714,1036538171
Baishan,41.9377,126.4179,China,CN,minor,1296127,1156960624
Dayan,26.8808,100.2208,China,CN,,1296000,1156828380
Haicheng,40.8523,122.7474,China,CN,minor,1293877,1156052713
Tripoli,32.8872,13.1914,Libya,LY,primary,1293016,1434201852
Jiangyin,31.9087,120.2653,China,CN,,1285785,1156033234
Yicheng,31.3697,119.8239,China,CN,minor,1285785,1156292419
Huaiyin,33.5819,119.028,China,CN,,1264000,1156662372
Porto,41.1621,-8.622,Portugal,PT,admin,1278210,1620356810
Cacuaco,-8.8053,13.2444,Angola,AO,,1279488,1024559448
Soweto,-26.2678,27.8585,South Africa,ZA,,1271628,1710627007
Rosario,-32.9575,-60.6394,Argentina,AR,minor,1276000,1032770677
Canagatan,18,121.8,Philippines,PH,,1273219,1608697675
Helsinki,60.1708,24.9375,Finland,FI,primary,1268296,1246177997
Jabalpur,23.1667,79.9333,India,IN,,1267564,1356115460
Providence,41.823,-71.4187,United States,US,admin,1270149,1840003289
Rucheng,32.3852,120.5634,China,CN,minor,1267066,1156323529
Nizhniy Novgorod,56.3269,44.0075,Russia,RU,admin,1264075,1643012126
Ahvaz,31.3203,48.6692,Iran,IR,admin,1261042,1364350188
Jepara,-6.5333,110.6667,Indonesia,ID,minor,1257912,1360703818
Shaoyang,32.9387,119.8404,China,CN,minor,1253548,1156668366
Comayaguela,14.0981,-87.2097,Honduras,HN,,1250000,1340762485
Laiwu,36.1833,117.6667,China,CN,,1248636,1156207332
Sharjah,25.3575,55.3908,United Arab Emirates,AE,admin,1247749,1784152993
Kalamboli,19.2333,73.1333,India,IN,,1246381,1356537020
Jingling,30.6667,113.1667,China,CN,,1247400,1156060544
Kazan,55.7964,49.1089,Russia,RU,admin,1243500,1643101260
Suwon,37.2667,127.0167,South Korea,KR,admin,1234300,1410679777
Yongcheng,33.9317,116.4459,China,CN,,1240382,1156841802
Sumedang,-6.84,107.9208,Indonesia,ID,,1240000,1360564479
Calgary,51.05,-114.0667,Canada,CA,,1239220,1124690423
Can Tho,10.0333,105.7833,Vietnam,VN,admin,1237300,1704783472
Yiwu,29.3081,120.0698,China,CN,minor,1234015,1156078044
Bagam,1.0833,104.0333,Indonesia,ID,,1230097,1360405604
Beidao,34.602,105.918,China,CN,minor,1225000,1156137209
Vasai,19.47,72.8,India,IN,,1222390,1356707797
Xiangshui,26.5964,104.8314,China,CN,,1221000,1156328867
Jacksonville,30.3322,-81.6749,United States,US,,1220191,1840015031
Akcaabat,41.0167,39.55,Turkey,TR,minor,1215351,1792536331
Campinas,-22.9058,-47.0608,Brazil,BR,,1213792,1076145766
Dadukou,26.5849,101.7149,China,CN,minor,1214121,1156901342
Mombasa,-4.05,39.6667,Kenya,KE,admin,1208333,1404512373
Lingcheng,22.7,110.35,China,CN,,1211637,1156202191
Najafgarh,28.6092,76.9798,India,IN,,1203180,1356180206
Vila Velha,3.2167,-51.2167,Brazil,BR,,1209091,1076575691
Gazipura,23.9889,90.375,Bangladesh,BD,,1199215,1050449249
Chelyabinsk,55.15,61.4,Russia,RU,admin,1202371,1643224011
Varanasi,25.3189,83.0128,India,IN,,1198491,1356145782
Xinyu,27.795,114.9242,China,CN,minor,1202499,1156138735
Qom,34.64,50.8764,Iran,IR,admin,1201158,1364701633
Hargeysa,9.5631,44.0675,Somalia,SO,admin,1200000,1706832021
Zhangye,38.9355,100.4553,China,CN,minor,1199515,1156180353
Hiroshima,34.3914,132.4519,Japan,JP,admin,1198021,1392373695
Maiduguri,11.8333,13.15,Nigeria,NG,admin,1197497,1566540296
Chiang Mai,18.7953,98.9986,Thailand,TH,admin,1198000,1764662886
Doha,25.2867,51.5333,Qatar,QA,primary,1186023,1634459660
Maputo,-25.9667,32.5833,Mozambique,MZ,primary,1191613,1508074843
Mbandaka,0.0478,18.2558,Congo (Kinshasa),CD,admin,1187837,1180720887
Pikine,14.75,-17.4,Senegal,SN,,1170791,1686165071
Medina,24.47,39.61,Saudi Arabia,SA,admin,1180770,1682345785
Srinagar,34.09,74.79,India,IN,admin,1180570,1356442950
Omsk,54.9667,73.3833,Russia,RU,admin,1178391,1643360863
Dublin,53.35,-6.2603,Ireland,IE,primary,1173179,1372595407
Liaoyuan,42.8976,125.1381,China,CN,,1176239,1156249772
Cilacap,-7.7167,109.017,Indonesia,ID,minor,1174964,1360503809
Yingtan,28.2333,117,China,CN,,1175000,1156301061
Bandar Lampung,-5.45,105.2667,Indonesia,ID,admin,1166761,1360243491
Samara,53.2028,50.1408,Russia,RU,admin,1169719,1643205757
Guankou,28.1417,113.625,China,CN,minor,1168056,1156249346
Ulsan,35.55,129.3167,South Korea,KR,admin,1166033,1410134602
Dhanbad,23.7998,86.4305,India,IN,,1162472,1356103392
Dingzhou,38.5158,114.9845,China,CN,,1165182,1156656582
Lianyuan,27.6961,111.6659,China,CN,minor,1162928,1156490109
Rongcheng,29.8239,112.9019,China,CN,minor,1162770,1156102432
Kaiyuan,36.0656,113.8153,China,CN,minor,1160000,1156441554
Nay Pyi Taw,19.7475,96.115,Myanmar,MM,primary,1160242,1104838105
Zhuji,29.7169,120.2314,China,CN,minor,1157938,1156504227
Kigali,-1.9536,30.0606,Rwanda,RW,primary,1156663,1646923541
Bukavu,-2.5,28.8667,Congo (Kinshasa),CD,admin,1133000,1180475821
Leiyang,26.4179,112.8457,China,CN,minor,1151554,1156057789
Bafoussam,5.4667,10.4167,Cameroon,CM,admin,1146000,1120435460
Yichun,47.7235,128.8893,China,CN,minor,1148126,1156757274
Benin City,6.3333,5.6222,Nigeria,NG,admin,1147188,1566080151
Rostov,47.2333,39.7,Russia,RU,admin,1137704,1643013518
Xiantao,30.3833,113.4,China,CN,,1140100,1156216927
Amritsar,31.64,74.86,India,IN,,1132383,1356926507
Callao,-12.0333,-77.1333,Peru,PE,admin,1129854,1604422141
Salt Lake City,40.7776,-111.9311,United States,US,admin,1135344,1840021383
Aligarh,27.88,78.08,India,IN,,1131160,1356076391
Shagamu,6.8333,3.65,Nigeria,NG,minor,1132270,1566202131
Yingchuan,34.1511,113.4733,China,CN,minor,1131896,1156748426
Ciudad Nezahualcoyotl,19.4081,-99.0186,Mexico,MX,,1109363,1484016661
Tbilisi,41.7225,44.7925,Georgia,GE,primary,1118035,1268203191
Guwahati,26.1722,91.7458,India,IN,,1116267,1356593800
Ufa,54.7261,55.9475,Russia,RU,admin,1115560,1643722928
Fes,34.0433,-5.0033,Morocco,MA,admin,1112072,1504861997
Sao Luis,-2.5283,-44.3044,Brazil,BR,admin,1108975,1076819308
Bien Hoa,10.95,106.8167,Vietnam,VN,admin,1104000,1704863046
Sevilla,37.24,-5.99,Spain,ES,admin,1100000,1724991838
N'Djamena,12.11,15.05,Chad,TD,primary,1092066,1148708596
Mexicali,32.6633,-115.4678,Mexico,MX,admin,1102342,1484788702
Nezahualcoyotl,19.4006,-99.0148,Mexico,MX,minor,1077208,1484074285
Ikare,7.5167,5.75,Nigeria,NG,minor,1099931,1566683694
Nashville,36.1715,-86.7842,United States,US,admin,1098486,1840036155
Tamale,9.4075,-0.8533,Ghana,GH,admin,1095808,1288890688
Xibeijie,39.737,98.5049,China,CN,minor,1095947,1156960560
Yuyao,30.0372,121.1546,China,CN,,1095000,1156221984
Haora,22.58,88.3294,India,IN,,1077075,1356986516
Hanchuan,30.652,113.8274,China,CN,,1092700,1156149248
Gongzhuling,43.5036,124.8088,China,CN,minor,1092692,1156696810
Krasnoyarsk,56.0089,92.8719,Russia,RU,admin,1083865,1643544975
Cologne,50.9364,6.9528,Germany,DE,,1083498,1276015998
Bujumbura,-3.3833,29.3667,Burundi,BI,primary,1075000,1108101689
Bishkek,42.8747,74.6122,Kyrgyzstan,KG,primary,1074075,1417191971
Zhufeng,36,119.4167,China,CN,,1081960,1156522825
Sao Goncalo,-22.8269,-43.0539,Brazil,BR,,1077687,1076485783
Yerevan,40.1814,44.5144,Armenia,AM,primary,1075800,1051074169
Ezhou,30.3972,114.8842,China,CN,minor,1079353,1156414637
Nur-Sultan,51.1472,71.4222,Kazakhstan,KZ,primary,1078362,1398516045
Tongjin,37.2333,127.2,South Korea,KR,,1076369,1410160862
Nouakchott,18.0858,-15.9785,Mauritania,MR,primary,1077169,1478414984
Xiashi,30.5333,120.6833,China,CN,minor,1076199,1156080077
Ranchi,23.36,85.33,India,IN,admin,1073440,1356110588
Taixing,32.1724,120.0142,China,CN,minor,1073921,1156331200
Vereeniging,-26.6736,27.9319,South Africa,ZA,,1074000,1710271883
Gwalior,26.2215,78.178,India,IN,,1069276,1356363967
Zhongwei,37.5139,105.1884,China,CN,minor,1067336,1156956616
Goyang,37.65,126.8,South Korea,KR,minor,1061929,1410511255
Oslo,59.9133,10.7389,Norway,NO,primary,1064235,1578324706
Vijayawada,16.5193,80.6305,India,IN,,1048240,1356807575
Chandigarh,30.75,76.78,India,IN,admin,1055450,1356739179
Edmonton,53.5344,-113.4903,Canada,CA,admin,1062643,1124290735
Sendai,38.2682,140.8694,Japan,JP,admin,1061177,1392457903
Raleigh,35.8324,-78.6429,United States,US,admin,1062018,1840014497
Mizhou,35.99,119.3801,China,CN,minor,1060000,1156935002
Tunis,36.8064,10.1817,Tunisia,TN,primary,1056247,1788742103
Xishan,27.6609,113.4946,China,CN,minor,1060000,1156155575
Barquisimeto,10.0678,-69.3467,Venezuela,VE,admin,1059092,1862860739
Hegang,47.3139,130.2775,China,CN,minor,1058665,1156541759
Voronezh,51.6717,39.2106,Russia,RU,admin,1050602,1643811064
Perm,58.0139,56.2489,Russia,RU,admin,1048005,1643294442
Changwon,35.2708,128.6631,South Korea,KR,admin,1046054,1410592618
Fangchenggang,21.6,108.3,China,CN,minor,1046068,1156532454
Shouguang,36.8833,118.7333,China,CN,,1039205,1156787809
Bogor,-6.5966,106.7972,Indonesia,ID,,1030720,1360771925
Cartagena,10.4,-75.5,Colombia,CO,admin,1036412,1170886102
Matola,-25.9667,32.4667,Mozambique,MZ,,1032197,1508768577
Jodhpur,26.28,73.02,India,IN,,1033918,1356727084
Memphis,35.1087,-89.9663,United States,US,,1034498,1840015457
Ogbomoso,8.1333,4.25,Nigeria,NG,minor,1032000,1566373448
Rangapukur,25.56,89.25,Bangladesh,BD,,1031388,1050032005
Managua,12.1544,-86.2738,Nicaragua,NI,primary,1028808,1558296252
Sanya,18.2533,109.5036,China,CN,minor,1031396,1156373900
Shymkent,42.3167,69.5958,Kazakhstan,KZ,admin,1028673,1398791401
Wutong,30.6326,120.5474,China,CN,minor,1029754,1156182309
Niamey,13.515,2.1175,Niger,NE,primary,1026848,1562932886
Shubra al Khaymah,30.1286,31.2422,Egypt,EG,,1025569,1818909612
Linhai,28.8523,121.1409,China,CN,,1028813,1156451663
Denizli,37.7667,29.0833,Turkey,TR,admin,1027782,1792161179
Maceio,-9.6658,-35.735,Brazil,BR,admin,1025360,1076440479
Monrovia,6.3133,-10.8014,Liberia,LR,primary,1021762,1430477826
Wafangdian,39.6271,121.9972,China,CN,,1024876,1156476417
Zhongxiang,31.169,112.5853,China,CN,,1022514,1156631720
Louisville,38.1663,-85.6485,United States,US,,1022630,1840030815
Odesa,46.4775,30.7326,Ukraine,UA,admin,1017699,1804178102
Thu Duc,10.8266,106.7609,Vietnam,VN,minor,1013795,1704361621
Volgograd,48.7086,44.5147,Russia,RU,admin,1015586,1643577201
Islamabad,33.6931,73.0639,Pakistan,PK,primary,1014825,1586306717
Port-au-Prince,18.5333,-72.3333,Haiti,HT,primary,987310,1332401940
Xinyi,22.3559,110.9369,China,CN,,1013900,1156936644
Raipur,21.25,81.63,India,IN,admin,1010087,1356374983
Arequipa,-16.4,-71.5333,Peru,PE,admin,1008290,1604723954
Richmond,37.5295,-77.4756,United States,US,admin,1008069,1840001698
Zaoyang,32.1287,112.7581,China,CN,,1004741,1156197076
Buffalo,42.9018,-78.8487,United States,US,,1004655,1840000386
Shuizhai,33.4433,114.8994,China,CN,,1003698,1156462734
Xingyi,25.091,104.9011,China,CN,,1004132,1156255316
Kota,25.18,75.83,India,IN,,1001694,1356820310
Quetta,30.1833,67,Pakistan,PK,admin,1001205,1586556108
Kathmandu,27.7172,85.324,Nepal,NP,primary,975453,1524589448
Ottawa,45.4247,-75.695,Canada,CA,primary,989567,1124399363
Lilongwe,-13.9833,33.7833,Malawi,MW,primary,989318,1454688499
Asmara,15.3228,38.925,Eritrea,ER,primary,963000,1232791236
Freetown,8.4844,-13.2344,Sierra Leone,SL,primary,951000,1694085071
Vientiane,17.9667,102.6,Laos,LA,primary,948487,1418732714
Jerusalem,31.7784,35.2066,Israel,IL,primary,919438,1376261644
Riga,56.9489,24.1064,Latvia,LV,primary,920643,1428586192
Bangui,4.3733,18.5628,Central African Republic,CF,primary,889231,1140080881
Dushanbe,38.5367,68.78,Tajikistan,TJ,primary,863400,1762930616
Lome,6.1319,1.2228,Togo,TG,primary,837437,1768409132
Ashgabat,37.95,58.3833,Turkmenistan,TM,primary,828100,1795049992
Zagreb,45.8167,15.9833,Croatia,HR,primary,809268,1191233290
Libreville,0.3903,9.4542,Gabon,GA,primary,797003,1266952885
Cotonou,6.3667,2.4333,Benin,BJ,primary,762000,1204955174
Pretoria,-25.7461,28.1881,South Africa,ZA,primary,741651,1710176249
Vilnius,54.6872,25.28,Lithuania,LT,primary,708203,1440887149
Winnipeg,49.8844,-97.1464,Canada,CA,admin,705244,1124224963
Quebec City,46.8139,-71.2081,Canada,CA,admin,705103,1124823933
Chisinau,47.0228,28.8353,Moldova,MD,primary,702300,1498011437
Port Moresby,-9.4789,147.1494,Papua New Guinea,PG,primary,700000,1598685395
Skopje,41.9961,21.4317,Macedonia,MK,primary,640000,1807600615
Djibouti,11.5883,43.145,Djibouti,DJ,primary,603900,1262028958
Gaza,31.5069,34.456,Gaza Strip,XG,primary,590481,1916116052
Kingston,17.9714,-76.7931,Jamaica,JM,primary,580000,1388709177
Rabat,34.0209,-6.8416,Morocco,MA,primary,572717,1504023252
San Salvador,13.6989,-89.1914,El Salvador,SV,primary,567698,1222647454
The Hague,52.08,4.31,Netherlands,NL,primary,548320,1528799905
Asuncion,-25.3,-57.6333,Paraguay,PY,primary,524190,1600057911
Juba,4.85,31.6,South Sudan,SS,primary,525953,1728444337
Maseru,-29.31,27.48,Lesotho,LS,primary,519186,1426977668
Bissau,11.85,-15.5667,Guinea-Bissau,GW,primary,492004,1624168850
Valletta,35.8983,14.5125,Malta,MT,primary,480134,1470574399
Bratislava,48.1439,17.1097,Slovakia,SK,primary,475503,1703195001
Kitchener,43.4186,-80.4728,Canada,CA,,470015,1124158530
Manama,26.225,50.5775,Bahrain,BH,primary,436000,1048989486
Tallinn,59.4372,24.7453,Estonia,EE,primary,438341,1233260021
Beirut,33.8869,35.5131,Lebanon,LB,primary,361366,1422847713
Cape Town,-33.9253,18.4239,South Africa,ZA,primary,433688,1710680650
Tirana,41.3289,19.8178,Albania,AL,primary,418495,1008162156
Sarajevo,43.8564,18.4131,Bosnia and Herzegovina,BA,primary,419957,1070966777
Wellington,-41.2889,174.7772,New Zealand,NZ,primary,418500,1554772152
Banjul,13.4531,-16.5775,The Gambia,GM,primary,413397,1270723713
Halifax,44.6475,-63.5906,Canada,CA,admin,403131,1124130981
Canberra,-35.2931,149.1269,Australia,AU,primary,381488,1036142029
Yamoussoukro,6.8161,-5.2742,Côte d'Ivoire,CI,primary,355573,1384683557
Victoria,48.4283,-123.3647,Canada,CA,admin,335696,1124147219
Nicosia,35.1725,33.365,Cyprus,CY,primary,330000,1196944155
Windhoek,-22.57,17.0836,Namibia,NA,primary,322500,1516802003
Saint-Denis,-20.8789,55.4481,Reunion,RE,primary,315080,1638024662
Porto-Novo,6.4972,2.605,Benin,BJ,primary,300000,1204172060
Sucre,-19.0475,-65.26,Bolivia,BO,primary,300000,1068823873
Ljubljana,46.0514,14.5061,Slovenia,SI,primary,286745,1705917455
Nassau,25.0781,-77.3386,The Bahamas,BS,primary,274400,1044318561
Bloemfontein,-29.1167,26.2167,South Africa,ZA,primary,256185,1710495933
Fort-de-France,14.6,-61.0667,Martinique,MQ,primary,253995,1474969110
New Delhi,28.6139,77.209,India,IN,primary,249998,1356215164
Gaborone,-24.6581,25.9122,Botswana,BW,primary,231626,1072756768
Paramaribo,5.8522,-55.2039,Suriname,SR,primary,223757,1740518660
Dili,-8.5536,125.5783,Timor-Leste,TL,primary,222323,1626308942
Dodoma,-6.1731,35.7419,Tanzania,TZ,primary,213636,1834288497
Georgetown,6.8058,-58.1508,Guyana,GY,primary,200500,1328160906
Gibraltar,36.1333,-5.35,Gibraltar,GI,primary,187083,1292385245
Malabo,3.75,8.7833,Equatorial Guinea,GQ,primary,187302,1226861333
Suva,-18.1416,178.4419,Fiji,FJ,primary,185913,1242615095
Noumea,-22.2758,166.458,New Caledonia,NC,primary,182341,1540958092
Pristina,42.6633,21.1622,Kosovo,XK,primary,161751,1901760068
Male,4.1753,73.5089,Maldives,MV,primary,133019,1462441685
Port Louis,-20.1644,57.5042,Mauritius,MU,primary,149194,1480131261
Podgorica,42.4413,19.2629,Montenegro,ME,primary,150977,1499454516
Willemstad,12.108,-68.935,Curaçao,CW,primary,150000,1531000000
Bern,46.9481,7.4475,Switzerland,CH,primary,133883,1756374318
Gitega,-3.4283,29.925,Burundi,BI,primary,135467,1108778000
Reykjavik,64.1467,-21.94,Iceland,IS,primary,135688,1352327190
Luxembourg,49.6117,6.1319,Luxembourg,LU,primary,132780,1442262731
Papeete,-17.5334,-149.5667,French Polynesia,PF,primary,131695,1258907380
Praia,14.918,-23.509,Cabo Verde,CV,primary,127832,1132398770
Sri Jayewardenepura Kotte,6.9108,79.8878,Sri Lanka,LK,primary,115826,1144239330
Bridgetown,13.0975,-59.6167,Barbados,BB,primary,110000,1052274244
Moroni,-11.699,43.256,Comoros,KM,primary,111329,1174793581
Thimphu,27.4722,89.6361,Bhutan,BT,primary,104000,1064010361
Mbabane,-26.3208,31.1617,Swaziland,SZ,primary,94874,1748811945
Honiara,-9.4319,159.9556,Solomon Islands,SB,primary,84520,1090737486
Port of Spain,10.6667,-61.5167,Trinidad and Tobago,TT,primary,81142,1780670676
Castries,14.0167,-60.9833,Saint Lucia,LC,primary,70000,1662922505
Putrajaya,2.93,101.69,Malaysia,MY,primary,67964,1458000206
Cayenne,4.933,-52.33,French Guiana,GF,primary,61550,1254304969
Sao Tome,0.3361,6.7306,Sao Tome and Principe,ST,primary,56166,1678301324
Port-Vila,-17.7333,168.3167,Vanuatu,VU,primary,51437,1548805075
Bandar Seri Begawan,4.8903,114.9422,Brunei,BN,primary,50000,1096465895
Monaco,43.7333,7.4167,Monaco,MC,primary,36371,1492854256
Apia,-13.8333,-171.75,Samoa,WS,primary,37708,1882489296
Tarawa,1.3382,173.0176,Kiribati,KI,primary,28802,1296152641
Oranjestad,12.5186,-70.0358,Aruba,AW,primary,34980,1533513057
Saint Helier,49.1858,-2.11,Jersey,JE,primary,33522,1832490253
Mamoudzou,-12.7794,45.2272,Mayotte,YT,primary,32057,1175099654
Majuro,7.0833,171.3833,Marshall Islands,MH,primary,30000,1584000000
Douglas,54.145,-4.482,Isle Of Man,IM,primary,27938,1833688345
George Town,19.2866,-81.3744,Cayman Islands,KY,primary,27704,1136159124
Victoria,-4.6167,55.45,Seychelles,SC,primary,26450,1690193579
Kingstown,13.1578,-61.225,Saint Vincent and the Grenadines,VC,primary,25000,1670376659
Andorra la Vella,42.5,1.5,Andorra,AD,primary,22615,1020828846
Saint John's,17.1167,-61.85,Antigua and Barbuda,AG,primary,22219,1028912067
Nuku`alofa,-21.1333,-175.2,Tonga,TO,primary,23221,1776737461
Nuuk,64.1814,-51.6942,Greenland,GL,primary,18326,1304028354
Belmopan,17.2514,-88.7669,Belize,BZ,primary,17222,1084586375
Roseau,15.3014,-61.3883,Dominica,DM,primary,16582,1212060440
Basseterre,17.3,-62.7333,Saint Kitts and Nevis,KN,primary,13220,1659198919
Torshavn,62,-6.7833,Faroe Islands,FO,primary,13326,1234904517
Road Town,18.4167,-64.6167,British Virgin Islands,VG,primary,12603,1092732412
Pago Pago,-14.274,-170.7046,American Samoa,AS,primary,12576,1016976740
Grand Turk,21.4664,-71.136,Turks and Caicos Islands,TC,primary,5801,1796965313
Marigot,18.0706,-63.0847,Saint Martin,MF,primary,5700,1663133172
Palikir,6.9178,158.185,Federated States of Micronesia,FM,primary,6227,1583008885
Funafuti,-8.5167,179.2,Tuvalu,TV,primary,6025,1798251391
Vaduz,47.141,9.521,Liechtenstein,LI,primary,5668,1438317747
Lobamba,-26.4465,31.2064,Swaziland,SZ,primary,5800,1748963140
Avarua,-21.207,-159.771,Cook Islands,CK,primary,5445,1184217570
Saint George's,12.05,-61.75,Grenada,GD,primary,4315,1308891766
San Marino,43.9346,12.4473,San Marino,SM,primary,4040,1674741947
Tifariti,26.158,-10.567,Morocco,MA,primary,3000,1504999990
Philipsburg,18.0237,-63.0458,Sint Maarten,SX,primary,1894,1534859858
Capitol Hill,15.2137,145.7546,Northern Mariana Islands,MP,primary,2500,1580556972
Stanley,-51.7,-57.85,Falkland Islands (Islas Malvinas),FK,primary,2213,1238780509
Hamilton,32.2942,-64.7839,Bermuda,BM,primary,854,1060000000
Vatican City,41.904,12.453,Vatican City,VA,primary,825,1336000000
Alofi,-19.056,-169.921,Niue,NU,primary,1611,1570882835
Basse-Terre,16.0104,-61.7055,Guadeloupe,GP,primary,307,1312938008
Hagta,13.4745,144.7504,Guam,GU,primary,1051,1316937540
Brades,16.7928,-62.2106,Montserrat,MS,primary,391,1500971198
Yaren,-0.5477,166.9209,Nauru,NR,primary,,1520790128
Gustavia,17.8958,-62.8508,Saint Barthelemy,BL,primary,,1652681565
Ngerulmud,7.5006,134.6242,Palau,PW,primary,271,1585525081
Saint-Pierre,46.7811,-56.1764,Saint Pierre and Miquelon,PM,primary,,1666340272
The Valley,18.2167,-63.05,Anguilla,AI,primary,,1660698387
Mata-Utu,-13.2825,-176.1736,Wallis and Futuna,WF,primary,,1876784844
Kingston,-29.0569,167.9617,Norfolk Island,NF,primary,,1574121434
Longyearbyen,78.2167,15.6333,Svalbard,XR,primary,,1930654114
Adamstown,-25.0667,-130.0833,Pitcairn Islands,PN,primary,,1612000000
Flying Fish Cove,-10.4167,105.7167,Christmas Island,CX,primary,,1162889600
King Edward Point,-54.2833,-36.5,South Georgia And South Sandwich Islands,GS,primary,,1239048838
Bareilly,28.364,79.415,India,IN,,1000000,1356698199
Quang Ha,15.9333,108.2667,Vietnam,VN,,1000000,1704966442
Domaa-Ahenkro,7.2833,-2.8833,Ghana,GH,,1000000,1288459533
Oklahoma City,35.4676,-97.5136,United States,US,admin,994284,1840020428
Xingcheng,24.1681,115.6669,China,CN,minor,993000,1156913008
Dongtai,32.8534,120.3037,China,CN,minor,990306,1156536785
Yingcheng,24.1878,113.4042,China,CN,minor,986400,1156012356
Chiba,35.6073,140.1064,Japan,JP,admin,981738,1392107144
Al Mijlad,11.0339,27.74,Sudan,SD,,985000,1729768355
Pekanbaru,0.5092,101.4453,Indonesia,ID,admin,983356,1360422679
Luocheng,22.7645,111.5745,China,CN,minor,984100,1156138895
Dnipro,48.4675,35.04,Ukraine,UA,admin,980948,1804152933
Danyang,31.9948,119.575,China,CN,,980662,1156578273
Gode,5.9527,43.5516,Ethiopia,ET,,980782,1231128743
Natal,-6.9838,-60.2699,Brazil,BR,,980588,1076336975
Nada,19.5,109.5833,China,CN,minor,977700,1156911678
Zamboanga City,6.9042,122.0761,Philippines,PH,admin,977234,1608189351
Kirkuk,35.4667,44.3167,Iraq,IQ,admin,975000,1368344172
Bridgeport,41.1918,-73.1954,United States,US,,975078,1840004836
Naples,40.8333,14.25,Italy,IT,admin,966144,1380646673
Wuchuan,21.4283,110.7749,China,CN,,972400,1156198103
Huilong,31.8131,121.6574,China,CN,minor,972525,1156485081
Morelia,19.7683,-101.1894,Mexico,MX,,962555,1484669072
Malaga,36.7194,-4.42,Spain,ES,minor,967250,1724397372
Cebu City,10.32,123.75,Philippines,PH,admin,964169,1608136151
Al Mansurah,31.05,31.3833,Egypt,EG,admin,960423,1818255319
Coimbatore,11.0168,76.9558,India,IN,,959823,1356999503
Santo Domingo Este,18.4855,-69.8734,Dominican Republic,DO,admin,948855,1214664832
Setagaya,35.6466,139.6532,Japan,JP,,940509,1392792380
Songnam,37.4333,127.15,South Korea,KR,,948757,1410622472
Taishan,22.2486,112.785,China,CN,,953900,1156105450
Teresina,-5.0949,-42.8042,Brazil,BR,admin,953172,1076727667
Solapur,17.68,75.92,India,IN,,951558,1356314385
Tangier,35.7767,-5.8039,Morocco,MA,admin,947952,1504861504
Kermanshah,34.3142,47.065,Iran,IR,admin,952285,1364535690
Krasnodar,45.0333,38.9667,Russia,RU,admin,948827,1643438227
Baidoa,3.1167,43.65,Somalia,SO,admin,950000,1706563100
Gaalkacyo,6.7697,47.4308,Somalia,SO,admin,950000,1706067930
Anqiu,36.3619,119.1072,China,CN,,947723,1156592047
Feicheng,36.186,116.772,China,CN,,946627,1156303834
Seberang Jaya,5.4,100.4667,Malaysia,MY,,946092,1458417183
El Alto,-16.5047,-68.1633,Bolivia,BO,,943000,1068007058
Kitakyushu,33.8833,130.8833,Japan,JP,,935084,1392003140
Meishan,34.1736,112.839,China,CN,minor,936000,1156023073
Khartoum North,15.6333,32.6333,Sudan,SD,,936349,1729318628
Kisangani,0.5153,25.1911,Congo (Kinshasa),CD,admin,935977,1180478201
Aguascalientes,21.876,-102.296,Mexico,MX,admin,934424,1484666646
Marrakech,31.63,-8.0089,Morocco,MA,admin,928850,1504172585
Donetsk,48.0028,37.8053,Ukraine,UA,admin,929063,1804963805
Trujillo,-8.112,-79.0288,Peru,PE,admin,919899,1604613706
New Orleans,30.0687,-89.9288,United States,US,,925443,1840001839
Taihe,30.8706,105.3784,China,CN,minor,924531,1156281983
Trichinopoly,10.7903,78.7047,India,IN,,916857,1356884472
Xin'an,34.3662,118.3369,China,CN,,920628,1156236053
Taihecun,45.768,131.0063,China,CN,minor,920471,1156875484
Kashgar,39.4681,75.9938,China,CN,minor,920000,1156113193
Naucalpan de Juarez,19.4753,-99.2378,Mexico,MX,minor,913681,1484850125
Cankaya,39.9244,32.8856,Turkey,TR,minor,914501,1792458894
Santiago de Cuba,20.0217,-75.8294,Cuba,CU,admin,917340,1192766111
Owerri,5.4833,7.0333,Nigeria,NG,admin,908109,1566679132
Padang,-0.95,100.3531,Indonesia,ID,admin,914970,1360900986
Qingzhou,36.6967,118.4797,China,CN,,914047,1156874864
Lichuan,30.2965,108.9378,China,CN,,913700,1156302762
Santiago del Estero,-27.7833,-64.2667,Argentina,AR,admin,911506,1032492280
Daye,30.1003,114.9699,China,CN,,909724,1156255811
Hengzhou,22.6896,109.2674,China,CN,minor,908400,1156041202
Fort Worth,32.7817,-97.3474,United States,US,,908469,1840020696
Hartford,41.7661,-72.6834,United States,US,admin,907046,1840004773
Esenyurt,41.047,28.658,Turkey,TR,,891120,1792759121
Campo Grande,-20.4839,-54.615,Brazil,BR,admin,906092,1076660445
Zhuanghe,39.6896,122.9664,China,CN,,905852,1156410076
Bobo-Dioulasso,11.1833,-4.2833,Burkina Faso,BF,admin,903887,1854348796
Ad Dammam,26.4333,50.1,Saudi Arabia,SA,admin,903312,1682452296
Quzhou,28.9545,118.8763,China,CN,,902767,1156180376
Lhasa,29.6534,91.1719,China,CN,admin,902500,1156369972
Jiaozhou,36.2481,119.9625,China,CN,,900500,1156752602
Bunia,1.5667,30.25,Congo (Kinshasa),CD,admin,900666,1180006418
Taguig City,14.52,121.05,Philippines,PH,admin,886722,1608766695
Cancun,21.1606,-86.8475,Mexico,MX,minor,888797,1484010310
Merida,20.97,-89.62,Mexico,MX,admin,892363,1484396779
Yangchun,22.1717,111.7846,China,CN,,891800,1156787307
Dengtalu,36.1386,114.1066,China,CN,minor,887000,1156202014
Moradabad,28.8389,78.7769,India,IN,,887871,1356269375
Antipolo,14.5842,121.1763,Philippines,PH,admin,887399,1608824345
Abeokuta,7.1608,3.3483,Nigeria,NG,admin,888924,1566979497
Bucheon,37.5,126.7833,South Korea,KR,minor,867678,1410428222
Zhoushan,29.9887,122.2049,China,CN,minor,882932,1156200283
Tiruppur,11.1085,77.3411,India,IN,,877778,1356539761
Natal,-5.7833,-35.2,Brazil,BR,admin,877662,1076697777
Chihuahua,28.6353,-106.0889,Mexico,MX,admin,878062,1484335603
Klang,3.0333,101.45,Malaysia,MY,,878000,1458509635
As Sulaymaniyah,35.5572,45.4356,Iraq,IQ,admin,878146,1368735317
Gurgaon,28.456,77.029,India,IN,,876824,1356836043
Turin,45.0792,7.6761,Italy,IT,admin,870952,1380244627
Tucson,32.1541,-110.8787,United States,US,,875284,1840022101
Hai'an,32.532,120.4604,China,CN,minor,874334,1156332302
Ar Ramadi,33.4258,43.2992,Iraq,IQ,admin,874543,1368838855
Laiyang,36.9758,120.7136,China,CN,,874127,1156207330
Sale,34.0333,-6.8,Morocco,MA,,850403,1504989034
Jalandhar,31.2569,75.4432,India,IN,,873725,1356494816
Marseille,43.2964,5.37,France,FR,admin,870731,1250774071
Bucaramanga,7.1333,-73,Colombia,CO,admin,870752,1170940590
Kaifeng Chengguanzhen,34.8519,114.3481,China,CN,minor,872000,1156686574
Ikeja,6.6186,3.3426,Nigeria,NG,admin,861300,1566486388
Eskisehir,39.7767,30.5206,Turkey,TR,admin,871187,1792933981
Saltillo,25.4231,-100.9919,Mexico,MX,admin,864431,1484107245
Gaomi,36.3833,119.75,China,CN,,868715,1156673331
Liverpool,53.4075,-2.9919,United Kingdom,GB,,864122,1826558678
Ipoh,4.5972,101.075,Malaysia,MY,admin,866772,1458423505
Oran,35.6969,-0.6331,Algeria,DZ,admin,852000,1012126319
Portsmouth,50.8058,-1.0872,United Kingdom,GB,,855679,1826964096
Southampton,50.9025,-1.4042,United Kingdom,GB,,855569,1826602892
Hermosillo,29.0989,-110.9542,Mexico,MX,admin,855563,1484015319
Cochabamba,-17.3833,-66.1667,Bolivia,BO,admin,856198,1068793894
Weichanglu,37.1792,119.9333,China,CN,minor,859424,1156194600
Shache,38.4261,77.25,China,CN,,851374,1156278934
Wuxi,26.5895,111.8481,China,CN,minor,853197,1156698595
Leping,28.9632,117.1203,China,CN,minor,852800,1156705082
Hailun,47.4585,126.9632,China,CN,minor,850000,1156804488
Macheng,31.1817,115.0189,China,CN,,849090,1156949639
Akure,7.25,5.195,Nigeria,NG,admin,847903,1566568277
Ilorin,8.5,4.55,Nigeria,NG,admin,847582,1566480168
Yuci,37.6823,112.7281,China,CN,,840000,1156177817
Saratov,51.5333,46.0167,Russia,RU,admin,845300,1643556540
Erbil,36.1912,44.0092,Iraq,IQ,admin,846000,1368578192
Iguacu,-22.74,-43.47,Brazil,BR,,844583,1076339714
Pasig City,14.575,121.0833,Philippines,PH,admin,803159,1608278212
Dehui,44.5333,125.7,China,CN,,839786,1156898134
Kalkaji Devi,28.5485,77.2513,India,IN,,824177,1356264482
Bhubaneshwar,20.27,85.84,India,IN,admin,837737,1356140143
Honolulu,21.3294,-157.846,United States,US,admin,835291,1840013305
Tongchuan,34.9057,108.9422,China,CN,minor,834437,1156849608
Cheongju,36.6333,127.4833,South Korea,KR,admin,833276,1410964361
Chengxiang,31.4515,121.1043,China,CN,minor,831113,1156254788
Thessaloniki,40.6403,22.9347,Greece,GR,admin,824676,1300397999
Warri,5.5167,5.75,Nigeria,NG,minor,830106,1566325734
Sakai,34.5733,135.4831,Japan,JP,,824408,1392003291
Pointe-Noire,-4.8,11.85,Congo (Brazzaville),CG,admin,829134,1178411563
Rongjiawan,29.1409,113.1087,China,CN,minor,826000,1156795164
Mediouna,33.45,-7.51,Morocco,MA,,822851,1504371270
Butterworth,5.3992,100.3639,Malaysia,MY,,821652,1458469233
Renqiu,38.7094,116.1008,China,CN,,822455,1156943939
Xindi,29.8182,113.4653,China,CN,,819446,1156263165
Bhayandar,19.29,72.85,India,IN,,809378,1356019118
Wu'an,36.6941,114.1847,China,CN,,819000,1156729960
Sao Bernardo do Campo,-23.7,-46.55,Brazil,BR,,816925,1076793227
Mandvi,19.3,72.85,India,IN,,814655,1356843310
Barinas,8.6333,-70.2,Venezuela,VE,admin,816264,1862647790
Zijinglu,34.7513,112.9854,China,CN,minor,807857,1156086381
Gaoyou,32.7847,119.4432,China,CN,minor,811800,1156235854
Culiacan,24.8069,-107.3939,Mexico,MX,admin,808416,1484516810
Hejian,38.4451,116.0897,China,CN,,810306,1156405731
Yiyang,26.4103,112.3913,China,CN,minor,810447,1156142520
Puxi,35.2125,114.735,China,CN,minor,809535,1156046618
Androtsy,-24.1,46.3,Madagascar,MG,,809313,1450017816
McAllen,26.2252,-98.2467,United States,US,,809002,1840021024
Qingping,34.538,113.3796,China,CN,minor,797200,1156033855
Omaha,41.2627,-96.0529,United States,US,,806485,1840009315
Joao Pessoa,-7.12,-34.88,Brazil,BR,admin,801718,1076922014
Dongyang,29.2785,120.2282,China,CN,minor,804398,1156259752
Queretaro,20.5875,-100.3928,Mexico,MX,admin,801940,1484604775
Krakow,50.0614,19.9372,Poland,PL,admin,800653,1616172264
George Town,5.4144,100.3292,Malaysia,MY,admin,794313,1458236750
Abaete,-19.1583,-45.4522,Brazil,BR,,800000,1076413528
Palermo,2.8917,-75.4375,Colombia,CO,minor,800000,1170614290
Valencia,39.47,-0.3764,Spain,ES,admin,792492,1724981666
Xigaze,29.25,88.8833,China,CN,minor,798153,1156107208
El Paso,31.8476,-106.43,United States,US,,794344,1840023252
Seyhan,36.9831,35.3328,Turkey,TR,minor,792536,1792655353
Niigata,37.9161,139.0364,Japan,JP,admin,790646,1392913753
Hempstead,40.6629,-73.6089,United States,US,,791018,1840005293
Leeds,53.8003,-1.5497,United Kingdom,GB,,789194,1826343963
Hamamatsu,34.7108,137.7275,Japan,JP,,788211,1392174500
Bagcilar,41.0344,28.8564,Turkey,TR,,734369,1792374908
Xiangxiang,27.7389,112.5223,China,CN,,787216,1156524101
Bilbao,43.2569,-2.9236,Spain,ES,minor,775000,1724331267
Chaohucun,31.6783,117.7353,China,CN,,782000,1156671495
Fuyang,30.0553,119.95,China,CN,minor,771000,1156340393
Homs,34.7333,36.7167,Syria,SY,admin,775404,1760013934
Kucukcekmece,41,28.8,Turkey,TR,minor,770317,1792992349
Lubango,-14.9167,13.5,Angola,AO,admin,776249,1024669127
Zouping,36.8625,117.7424,China,CN,,774517,1156817518
Khujand,40.2833,69.6333,Tajikistan,TJ,admin,770000,1762372787
San Luis Potosi,22.1511,-100.9761,Mexico,MX,admin,772828,1484583620
Nottingham,52.9533,-1.15,United Kingdom,GB,,768638,1826122597
Cencheng,22.9297,111.0186,China,CN,minor,772113,1156000460
Dali,25.6808,100.3003,China,CN,,771128,1156840276
Hamhung,39.9167,127.5333,North Korea,KP,admin,768551,1408482040
Korla,41.7259,86.1746,China,CN,minor,770000,1156965620
Rajshahi,24.3667,88.6,Bangladesh,BD,admin,763580,1050547831
Erzurum,39.9086,41.2769,Turkey,TR,admin,767848,1792511957
Frankfurt,50.1106,8.6822,Germany,DE,minor,764104,1276054552
Al `Ayn,24.2075,55.7447,United Arab Emirates,AE,,766936,1784674685
Songzi,30.1772,111.7732,China,CN,,765911,1156837705
Albuquerque,35.1054,-106.6465,United States,US,,765693,1840019176
Patiala,30.34,76.38,India,IN,,763280,1356458416
Laixi,36.8667,120.5333,China,CN,,762900,1156973102
Bahawalpur,29.3956,71.6836,Pakistan,PK,minor,762111,1586038700
Zhongba,31.7761,104.7406,China,CN,minor,762140,1156515985
Kaduna,10.5167,7.4333,Nigeria,NG,admin,760084,1566368729
Qingnian,36.8494,115.7061,China,CN,minor,760781,1156689964
San Pedro Sula,15.5,-88.0333,Honduras,HN,admin,760182,1340568412
Qamdo,31.1375,97.1777,China,CN,minor,760966,1156277802
Xinhualu,34.3962,113.7249,China,CN,minor,758079,1156544851
Nerima,35.7355,139.6517,Japan,JP,,742463,1392093402
Guangshui,31.6189,113.8229,China,CN,,755910,1156267419
Pietermaritzburg,-29.6167,30.3833,South Africa,ZA,admin,750845,1710690280
Baardheere,2.3333,42.2833,Somalia,SO,,755500,1706822684
Tlajomulco de Zuniga,20.4736,-103.4431,Mexico,MX,minor,727750,1484017493
Samarinda,-0.5,117.1378,Indonesia,ID,admin,753370,1360684979
Changhua,24.0667,120.5333,Taiwan,TW,admin,750000,1158439005
Sizhan,39.0099,106.3694,China,CN,,751389,1156450911
Ciudad Guayana,8.3667,-62.65,Venezuela,VE,minor,751331,1862889027
Cucuta,7.8942,-72.5039,Colombia,CO,admin,750000,1170743755
Dhulia,20.8997,74.7697,India,IN,,750000,1356224695
Burco,9.5279,45.5345,Somalia,SO,admin,750211,1706322754
Licheng,31.4174,119.4786,China,CN,minor,749522,1156933354
Ota-ku,35.5613,139.716,Japan,JP,,737187,1392003511
Thiruvananthapuram,8.4875,76.9525,India,IN,admin,743691,1356024354
Tyumen,57.15,65.5333,Russia,RU,admin,744554,1643040435
Nampula,-15.1167,39.2667,Mozambique,MZ,admin,743000,1508958445
Zaporizhzhia,47.85,35.1175,Ukraine,UA,admin,741717,1804644752
Kyaukse,21.6131,96.1303,Myanmar,MM,,741071,1104814217
Chengguan,35.5256,113.6976,China,CN,minor,740435,1156866870
Kumamoto,32.8031,130.7078,Japan,JP,admin,738385,1392106283
Nehe,48.48,124.8738,China,CN,minor,740000,1156609562
Osogbo,7.7667,4.5667,Nigeria,NG,admin,731000,1566395088
Cabinda,-5.56,12.19,Angola,AO,admin,739182,1024474012
Kerman,30.2833,57.0833,Iran,IR,admin,738374,1364554896
Zunhua,40.1881,117.9593,China,CN,minor,737011,1156756935
Rochester,43.168,-77.6162,United States,US,,737309,1840000373
Valenzuela,14.7,120.98,Philippines,PH,admin,714978,1608492120
Orumiyeh,37.5486,45.0675,Iran,IR,admin,736224,1364158221
Wugang,26.7345,110.6293,China,CN,,734870,1156089788
Shuangqiao,35.0833,112.5833,China,CN,minor,733000,1156968311
Tshikapa,-6.4167,20.8,Congo (Kinshasa),CD,,732000,1180581239
Sao Jose dos Campos,-23.1789,-45.8869,Brazil,BR,,729737,1076783887
Comodoro Rivadavia,-45.8647,-67.4808,Argentina,AR,minor,730266,1032042035
Cagayan de Oro,8.4833,124.65,Philippines,PH,admin,728402,1608831546
Tondo,14.617,120.967,Philippines,PH,,654220,1608204201
Langzhong,31.5504,105.9938,China,CN,minor,728935,1156930148
Qian'an,40.0059,118.6973,China,CN,,728160,1156315498
Lviv,49.8425,24.0322,Ukraine,UA,admin,724314,1804939658
Sarasota,27.3387,-82.5432,United States,US,,727388,1840015988
Reynosa,26.0922,-98.2778,Mexico,MX,minor,725793,1484737671
Santo Andre,-23.6572,-46.5333,Brazil,BR,,721368,1076625886
An Najaf,32,44.33,Iraq,IQ,admin,724700,1368003357
Sagamihara,35.5667,139.3667,Japan,JP,,722973,1392967248
Guli,28.9008,120.0284,China,CN,,723490,1156383681
Mississauga,43.6,-79.65,Canada,CA,,721599,1124112672
Concepcion,-36.8282,-73.0514,Chile,CL,admin,719944,1152838958
Okayama,34.65,133.9167,Japan,JP,admin,720043,1392954750
Anlu,31.2575,113.6783,China,CN,minor,720000,1156406202
Mwanza,-2.5167,32.9,Tanzania,TZ,admin,706453,1834011288
Fresno,36.783,-119.7939,United States,US,,719558,1840020319
Changsha,22.3762,112.6877,China,CN,minor,717700,1156011120
Torreon,25.5394,-103.4486,Mexico,MX,minor,716672,1484215762
Shihezi,44.3054,86.0804,China,CN,minor,717000,1156232270
Enugu,6.4528,7.5111,Nigeria,NG,admin,715774,1566212729
Jaboatao,-8.1803,-35.0014,Brazil,BR,,702621,1076000699
Tulsa,36.1283,-95.9042,United States,US,,715983,1840021672
Yanggok,37.6333,127.2167,South Korea,KR,,713321,1410188674
Yatou,37.1653,122.4867,China,CN,minor,714211,1156009046
Edogawa,35.7066,139.8683,Japan,JP,,697932,1392135698
Allentown,40.5961,-75.4756,United States,US,,714136,1840001044
Ribeirao Preto,-21.1783,-47.8067,Brazil,BR,,711825,1076524478
Xichang,27.8983,102.2706,China,CN,minor,712434,1156116456
Latakia,35.5167,35.7833,Syria,SY,admin,700000,1760555544
Bhiwandi,19.2967,73.0631,India,IN,,709665,1356763571
City of Paranaque,14.47,121.02,Philippines,PH,admin,689992,1608379532
Dasmarinas,14.3294,120.9367,Philippines,PH,,703141,1608418544
Dayton,39.7805,-84.2003,United States,US,,709300,1840034249
Saharanpur,29.964,77.546,India,IN,,705478,1356139858
Warangal,17.9689,79.5941,India,IN,,704570,1356851618
Soledad,10.9167,-74.75,Colombia,CO,minor,698852,1170765625
Osasco,-23.5328,-46.7919,Brazil,BR,,694844,1076786452
Dashiqiao,40.6328,122.5021,China,CN,minor,704891,1156141962
Birmingham,33.5279,-86.7971,United States,US,,704676,1840006507
Nampo,38.7333,125.4,North Korea,KP,,703317,1408358410
Shiliguri,26.71,88.43,India,IN,,701489,1356724691
Banjarmasin,-3.32,114.5925,Indonesia,ID,admin,692793,1360685223
Sha Tin,22.3802,114.1898,Hong Kong,HK,,640000,1344745541
Salem,11.65,78.15,India,IN,,693236,1356567087
General Santos,6.1167,125.1667,Philippines,PH,admin,697315,1608171585
Cocody,5.35,-3.9667,Côte d'Ivoire,CI,,692583,1384351512
Hamah,35.1333,36.75,Syria,SY,admin,696863,1760197502
Pendik,40.8747,29.235,Turkey,TR,minor,693599,1792824929
Bacoor,14.4624,120.9645,Philippines,PH,,664625,1608869358
Vellore,12.9165,79.1325,India,IN,,696110,1356977661
Shishi,24.7355,118.6434,China,CN,minor,693000,1156077046
Guadalupe,25.6775,-100.2597,Mexico,MX,minor,691931,1484002410
Adachi,35.7749,139.8044,Japan,JP,,682326,1392464568
Qianxi,27.0284,106.0327,China,CN,,695947,1156919716
Tolyatti,53.5089,49.4222,Russia,RU,,693072,1643256295
Macau,22.2006,113.5461,Macau,MO,,568700,1446227359
Bauchi,10.3158,9.8442,Nigeria,NG,admin,693700,1566483284
Hamilton,43.2567,-79.8692,Canada,CA,,693645,1124567288
Lodz,51.7769,19.4547,Poland,PL,admin,690422,1616832750
Miluo Chengguanzhen,28.8049,113.0745,China,CN,minor,692080,1156690651
Gaizhou,40.4019,122.3499,China,CN,minor,691595,1156145272
Karbala',32.6167,44.0333,Iraq,IQ,admin,690100,1368597794
Leling,37.7333,117.2167,China,CN,minor,689867,1156044041
Jianshe,34.2189,113.7693,China,CN,minor,687130,1156444449
Shizuoka,34.9756,138.3828,Japan,JP,admin,685589,1392235505
Charleston,32.8168,-79.9687,United States,US,,685517,1840015163
Jingcheng,32.0058,120.2547,China,CN,minor,684360,1156033208
Kochi,9.97,76.28,India,IN,,677381,1356707865
Mar del Plata,-38,-57.55,Argentina,AR,minor,682605,1032456103
Cape Coral,26.6443,-81.9957,United States,US,,682773,1840015130
Tasikmalaya,-7.3161,108.1975,Indonesia,ID,,678027,1360027771
Rasht,37.2808,49.5831,Iran,IR,admin,679995,1364630382
Xinmin,41.9952,122.8224,China,CN,,680000,1156368551
Shanhu,29.5908,120.8176,China,CN,minor,679762,1156029691
Zhongshu,27.8116,106.4133,China,CN,,679624,1156658422
Gorakhpur,26.7637,83.4039,India,IN,,673446,1356190221
Zaragoza,41.65,-0.8833,Spain,ES,admin,675301,1724907391
Wroclaw,51.11,17.0325,Poland,PL,admin,672929,1616108520
Acapulco de Juarez,16.8636,-99.8825,Mexico,MX,minor,673478,1484463183
Bahar,34.9072,48.4414,Iran,IR,minor,673405,1364891653
Kumul,42.8193,93.5151,China,CN,minor,673383,1156131545
Murcia,37.9861,-1.1303,Spain,ES,admin,672773,1724107739
Pinghu,30.7005,121.0104,China,CN,,671834,1156720536
Palermo,38.1157,13.3613,Italy,IT,admin,668405,1380428434
Guankou,30.9933,103.624,China,CN,,671200,1156503907
Tlaquepaque,20.6167,-103.3167,Mexico,MX,minor,664193,1484087945
Songyang,34.4603,113.028,China,CN,minor,668592,1156143149
Ch'ongjin,41.7833,129.7667,North Korea,KP,admin,667929,1408498177
Puyang Chengguanzhen,35.7004,114.98,China,CN,minor,666322,1156103317
Qionghu,28.8417,112.3595,China,CN,minor,667104,1156678111
Zhaodong,46.0635,125.9773,China,CN,minor,666532,1156601489
Narela,28.8527,77.0929,India,IN,,661994,1356542019
Huambo,-12.7767,15.7347,Angola,AO,admin,665564,1024079828
Wenchang,31.054,116.9507,China,CN,minor,664455,1156574542
Villavicencio,4.15,-73.6333,Colombia,CO,admin,664148,1170426927
Shulan,44.4079,126.9429,China,CN,minor,663403,1156989733
Tlalnepantla,19.5367,-99.1947,Mexico,MX,minor,653410,1484861603
Catia La Mar,10.6,-67.0333,Venezuela,VE,minor,661897,1862657837
Sargodha,32.0836,72.6711,Pakistan,PK,minor,659862,1586696588
Al Hufuf,25.3833,49.5833,Saudi Arabia,SA,,660788,1682958157
Durango,24.025,-104.6675,Mexico,MX,admin,654876,1484854616
Jalingo,8.9195,11.3264,Nigeria,NG,admin,660213,1566732241
Bouake,7.6833,-5.0167,Côte d'Ivoire,CI,admin,659233,1384983838
Mazatlan,23.2167,-106.4167,Mexico,MX,minor,658354,1484841466
San Jose del Monte,14.8139,121.0453,Philippines,PH,,651813,1608850554
Ansan,37.3167,126.8333,South Korea,KR,,652800,1410585171
Abomey-Calavi,6.4486,2.3556,Benin,BJ,,655965,1204016569
Lingbao Chengguanzhen,34.5221,110.8786,China,CN,minor,656571,1156837145
Hwasu-dong,37.1997,126.8314,South Korea,KR,,655350,1410037247
Sialkot City,32.4925,74.5311,Pakistan,PK,minor,655852,1586141444
Hue,16.4667,107.5792,Vietnam,VN,admin,652572,1704016023
Bulawayo,-20.17,28.58,Zimbabwe,ZW,admin,653337,1716032632
Xiping,25.6005,103.8166,China,CN,minor,652604,1156207794
Sanhe,39.9808,117.0701,China,CN,,652042,1156476348
Ch'onan,36.8167,127.1667,South Korea,KR,,651661,1410020455
Contagem,-19.9319,-44.0539,Brazil,BR,,648766,1076845191
Jieshou,33.2605,115.3618,China,CN,,650870,1156304827
Selcuklu,37.8814,32.4922,Turkey,TR,minor,648850,1792683478
Erer Sata,9.5667,41.3833,Ethiopia,ET,,649000,1231563638
Honcho,35.6946,139.9826,Japan,JP,,641499,1392505502
Dusseldorf,51.2333,6.7833,Germany,DE,admin,645923,1276615258
Izhevsk,56.85,53.2167,Russia,RU,admin,646277,1643983138
Guntur,16.3008,80.4428,India,IN,,647508,1356374905
Guixi,28.2861,117.2083,China,CN,minor,647240,1156259342
Sorocaba,-23.5017,-47.4581,Brazil,BR,,644919,1076758708
Yildirim,40.11,29.0821,Turkey,TR,minor,643681,1792764051
Petaling Jaya,3.0972,101.6444,Malaysia,MY,,638516,1458989343
Tengyue,25.0208,98.4972,China,CN,minor,644765,1156832866
Wuxue,29.8518,115.5539,China,CN,minor,644247,1156027100
Rasulpur,28.57,77.32,India,IN,,637272,1356018224
Bhavnagar,21.76,72.15,India,IN,,643365,1356982375
Brahmapur,19.315,84.7941,India,IN,,634220,1356569354
Qufu,35.6,116.9833,China,CN,,640498,1156490037
Gaobeidian,39.3257,115.8678,China,CN,,640280,1156487293
Ruiming,25.8833,116.0333,China,CN,,640600,1156104573
Columbia,34.0378,-80.9036,United States,US,admin,640502,1840014730
Concord,37.9722,-122.0016,United States,US,,640270,1840018905
Noida,28.57,77.32,India,IN,,637272,1356002491
Gold Coast,-28.0167,153.4,Australia,AU,,638090,1036153217
Xinshi,31.0236,113.1079,China,CN,minor,636776,1156422214
Ta`izz,13.5789,44.0219,Yemen,YE,admin,615467,1887324526
Aracaju,-10.9167,-37.05,Brazil,BR,admin,632744,1076527830
Jeonju,35.8167,127.15,South Korea,KR,admin,631532,1410494847
Bhangar,22.58,88.42,India,IN,,632107,1356177796
Jin'e,29.3395,105.2868,China,CN,minor,633210,1156661253
Barnaul,53.3333,83.75,Russia,RU,admin,633301,1643318931
Makati City,14.5567,121.0214,Philippines,PH,admin,629616,1608725647
Rotterdam,51.9167,4.5,Netherlands,NL,minor,631155,1528892850
Changping,40.2248,116.1944,China,CN,,614821,1156166828
Benghazi,32.1167,20.0667,Libya,LY,admin,631555,1434915572
Kryvyi Rih,47.9086,33.3433,Ukraine,UA,minor,629695,1804544901
Halwan,29.8453,31.3333,Egypt,EG,,619293,1818000039
Colorado Springs,38.8674,-104.7605,United States,US,,628808,1840018825
Suohe,34.7879,113.392,China,CN,minor,626700,1156236948
Chimalhuacan,19.4167,-98.9,Mexico,MX,minor,614453,1484504936
Xinxing,39.8734,124.1453,China,CN,minor,627475,1156258586
Bhilai,21.3667,81.7167,India,IN,,625700,1356098574
Mangalore,12.902,74.8253,India,IN,,623841,1356972351
Port-Bouet,5.2667,-3.9,Côte d'Ivoire,CI,,618795,1384512844
Zhuangyuan,37.3056,120.8275,China,CN,minor,626683,1156263400
Glasgow,55.8611,-4.25,United Kingdom,GB,,626410,1826836462
Namangan,41.0011,71.6683,Uzbekistan,UZ,admin,626120,1860894033
Ulyanovsk,54.3167,48.3667,Russia,RU,admin,624518,1643668944
Tan An,10.905,106.6994,Vietnam,VN,,618984,1704599287
Irkutsk,52.2833,104.2833,Russia,RU,admin,623736,1643439037
Bhilai,21.21,81.38,India,IN,,624700,1356071083
Nagercoil,8.1833,77.4119,India,IN,,622759,1356051733
Jos,9.9167,8.8903,Nigeria,NG,admin,622802,1566773679
Pontianak,-0.0206,109.3414,Indonesia,ID,admin,618388,1360992394
Bazhou,39.1235,116.386,China,CN,,622975,1156127276
Turpan,42.9512,89.1895,China,CN,minor,622903,1156573684
Villa Nueva,14.5314,-90.5964,Guatemala,GT,minor,618397,1320353009
Las Pinas City,14.45,120.98,Philippines,PH,,606293,1608544537
Springfield,42.1155,-72.5395,United States,US,,620494,1840000466
Knoxville,35.9692,-83.9496,United States,US,,619925,1840014486
Meihekou,42.5279,125.678,China,CN,minor,618251,1156474288
Jurong,31.9579,119.1595,China,CN,,617706,1156897463
Feira de Santana,-12.25,-38.95,Brazil,BR,,617528,1076892244
Khabarovsk,48.4833,135.0667,Russia,RU,admin,616242,1643175363
Zhugang,28.1277,121.2288,China,CN,minor,616346,1156077330
Leipzig,51.34,12.375,Germany,DE,minor,615081,1276563678
Xinji,37.9423,115.2118,China,CN,,615919,1156456552
Serang,-6.12,106.1503,Indonesia,ID,admin,613356,1360329102
Jambi,-1.59,103.61,Indonesia,ID,admin,612162,1360645580
Kandahar,31.62,65.7158,Afghanistan,AF,admin,614254,1004003059
San Miguel de Tucuman,-26.8167,-65.2167,Argentina,AR,admin,605767,1032233996
Gothenburg,57.7075,11.9675,Sweden,SE,admin,607882,1752059374
Yaroslavl,57.6167,39.85,Russia,RU,admin,608079,1643338528
Baton Rouge,30.442,-91.1311,United States,US,admin,610751,1840013941
Zhangshu,28.0667,115.5375,China,CN,,610424,1156996913
Vladivostok,43.1333,131.9,Russia,RU,admin,606589,1643832017
Ogden,41.2279,-111.9682,United States,US,,608259,1840020135
Kuantan,3.8167,103.3333,Malaysia,MY,admin,607778,1458763489
Raurkela,22.2492,84.8828,India,IN,,600000,1356096816
Cuttack,20.5236,85.7881,India,IN,,606007,1356872061
Ar Rayyan,25.25,51.4,Qatar,QA,admin,605712,1634097551
Haifa,32.8192,34.9992,Israel,IL,admin,600000,1376133727
Malanje,-9.5333,16.35,Angola,AO,admin,604215,1024774947
Bacolod,10.6765,122.9509,Philippines,PH,admin,600783,1608244137
Zhuozhou,39.4887,115.9918,China,CN,,603535,1156045160
Grand Rapids,42.9619,-85.6562,United States,US,,604311,1840002928
Uberlandia,-18.9231,-48.2886,Brazil,BR,,604013,1076495001
Albany,42.6664,-73.7987,United States,US,admin,604077,1840000417
Tianchang,32.6853,119.0041,China,CN,minor,602840,1156770851
Kawaguchi,35.8077,139.7241,Japan,JP,,593353,1392975133
Itabashi,35.7512,139.7093,Japan,JP,,581337,1392836404
Suginami-ku,35.6995,139.6364,Japan,JP,,583609,1392003090
Cimahi,-6.8712,107.5548,Indonesia,ID,,586580,1360181436
Tuxtla,16.7528,-93.1167,Mexico,MX,admin,598710,1484832519
Garoua,9.3,13.4,Cameroon,CM,admin,600000,1120803808
Hafr al Batin,28.4342,45.9636,Saudi Arabia,SA,,600000,1682394909
Tumkur,13.34,77.1,India,IN,,599078,1356033724
Balikpapan,-1.2768,116.8277,Indonesia,ID,,598043,1360500922
Durban,-29.8833,31.05,South Africa,ZA,,595061,1710149138
Kagoshima,31.6,130.55,Japan,JP,admin,593754,1392120675
Al Hillah,23.4895,46.7564,Saudi Arabia,SA,,594605,1682494753
Makhachkala,42.9833,47.4833,Russia,RU,admin,592976,1643580480
Sihui,23.3448,112.6956,China,CN,,593400,1156609451
Irapuato,20.6667,-101.35,Mexico,MX,minor,592953,1484625454
Brampton,43.6833,-79.7667,Canada,CA,,593638,1124625989
Luocheng,30.9793,104.28,China,CN,minor,591115,1156180482
Mbale,1.0806,34.175,Uganda,UG,admin,586300,1800265900
Pereira,4.8143,-75.6946,Colombia,CO,admin,590554,1170386718
Bakersfield,35.3529,-119.0359,United States,US,,590845,1840019148
Uvira,-3.4,29.15,Congo (Kinshasa),CD,,590000,1180205443
Dortmund,51.5167,7.4667,Germany,DE,minor,587696,1276562886
Chuxiong,25.0461,101.5436,China,CN,,588620,1156225985
Mission Viejo,33.6096,-117.6551,United States,US,,588540,1840020580
Zahedan,29.4964,60.8628,Iran,IR,admin,587730,1364072353
New Haven,41.3113,-72.9246,United States,US,,587648,1840004850
Shah Alam,3.0722,101.5167,Malaysia,MY,admin,584340,1458194263
Wenlan,23.3989,103.3631,China,CN,minor,585976,1156385754
Cuiaba,-15.5958,-56.0969,Brazil,BR,admin,585367,1076112309
Shangzhi,45.2116,127.962,China,CN,minor,585386,1156107332
Essen,51.4508,7.0131,Germany,DE,minor,582415,1276769247
Botou,38.074,116.57,China,CN,,584308,1156018338
Mymensingh,24.7539,90.4031,Bangladesh,BD,admin,576722,1050399881
Anyang,37.3833,126.9333,South Korea,KR,,573296,1410581095
Genoa,44.4111,8.9328,Italy,IT,admin,580097,1380716540
Durgapur,23.55,87.32,India,IN,,581409,1356045686
Port Sudan,19.6167,37.2167,Sudan,SD,admin,579942,1729710259
Al Mafraq,32.3399,36.2052,Jordan,JO,admin,580000,1400040712
Puente Alto,-33.6167,-70.5667,Chile,CL,minor,573935,1152516346
Dehra Dun,30.345,78.029,India,IN,admin,578420,1356970407
At Ta'if,21.2751,40.4062,Saudi Arabia,SA,,579970,1682956102
Wancheng,18.8,110.4,China,CN,minor,578600,1156017483
Hachioji,35.6664,139.316,Japan,JP,,575721,1392172935
Xiulin,29.7211,112.4037,China,CN,,577022,1156284109
Fu'an,27.1,119.6333,China,CN,minor,577000,1156244234
Tomsk,56.4886,84.9522,Russia,RU,admin,572740,1643258928
Tonala,20.6167,-103.2333,Mexico,MX,minor,569913,1484750897
Juiz de Fora,-21.7619,-43.3494,Brazil,BR,,573285,1076006144
Worcester,42.2705,-71.8079,United States,US,,573573,1840000434
Kolwezi,-10.7167,25.4667,Congo (Kinshasa),CD,admin,572942,1180380965
Chapra,25.7848,84.7274,India,IN,,567123,1356147120
Bristol,51.4536,-2.5975,United Kingdom,GB,,567111,1826921049
Luofeng,37.359,120.396,China,CN,minor,570898,1156158643
Lingyuan,41.2407,119.3957,China,CN,,570660,1156184681
Irbid,32.55,35.85,Jordan,JO,admin,569068,1400221568
Al Mahallah al Kubra,30.9686,31.1636,Egypt,EG,,535278,1818406471
Wencheng,19.6167,110.75,China,CN,minor,568900,1156985313
Bremen,53.0833,8.8,Germany,DE,admin,566573,1276376509
Ciudad Bolivar,8.1219,-63.55,Venezuela,VE,admin,567953,1862318264
Orenburg,51.7667,55.1,Russia,RU,admin,564773,1643685056
Shenzhou,38.0005,115.5541,China,CN,,566087,1156921843
Asansol,23.68,86.99,India,IN,,563917,1356093694
Kuiju,36.8528,119.3904,China,CN,minor,564501,1156174997
Zhenzhou,32.2739,119.1619,China,CN,minor,564021,1156634387
Surakarta,-7.5667,110.8167,Indonesia,ID,,552118,1360853933
Dresden,51.05,13.74,Germany,DE,admin,561922,1276561036
Kolhapur,16.6917,74.2333,India,IN,,561489,1356110593
Benguela,-12.55,13.4167,Angola,AO,admin,561775,1024141961
Ensenada,31.8578,-116.6058,Mexico,MX,minor,557430,1484714297
Kemerovo,55.3667,86.0667,Russia,RU,admin,558973,1643216311
Lanxi,29.2167,119.4722,China,CN,,560514,1156686465
Dangyang,30.8258,111.791,China,CN,,560000,1156585505
Faridpur,23.602,89.833,Bangladesh,BD,,557632,1050187264
Herat,34.3419,62.2031,Afghanistan,AF,admin,556205,1004237782
Luanzhou,39.7396,118.6978,China,CN,minor,554315,1156092104
Hamadan,34.8064,48.5161,Iran,IR,admin,554406,1364126377
Novokuznetsk,53.7667,87.1333,Russia,RU,,552105,1643628717
Nellore,14.45,79.99,India,IN,,547621,1356280972
Palma,39.5667,2.65,Spain,ES,admin,550000,1724728111
Chiclayo,-6.763,-79.8366,Peru,PE,admin,552508,1604799615
Nanded,19.15,77.3,India,IN,,550439,1356722310
Ajmer,26.4499,74.6399,India,IN,,551101,1356058258
Al Hudaydah,14.8022,42.9511,Yemen,YE,admin,548433,1887984890
Kimhae,35.2342,128.8811,South Korea,KR,,550758,1410836094
Provo,40.2457,-111.6457,United States,US,,551645,1840020174
Rustenburg,-25.6667,27.2428,South Africa,ZA,,549575,1710326039
Amravati,20.9258,77.7647,India,IN,,549370,1356462099
Poznan,52.4083,16.9336,Poland,PL,admin,546859,1616725607
Huanghua,38.371,117.3329,China,CN,minor,548507,1156131099
Muntinlupa City,14.38,121.05,Philippines,PH,admin,543445,1608473406
Londrina,-23.31,-51.1628,Brazil,BR,,548249,1076723241
Nansana,0.3639,32.5286,Uganda,UG,,532800,1800032516
Tabuk,28.3972,36.5789,Saudi Arabia,SA,admin,547957,1682590992
Heroica Matamoros,25.8797,-97.5042,Mexico,MX,minor,541979,1484614906
Akron,41.0798,-81.5219,United States,US,,546549,1840000791
Samarkand,39.6547,66.9758,Uzbekistan,UZ,admin,546303,1860388706
Xingcheng,40.6189,120.7205,China,CN,,546176,1156705922
Kaiyuan,42.538,124.0371,China,CN,,545624,1156081841
Hannover,52.3667,9.7167,Germany,DE,admin,542668,1276457707
Valledupar,10.4833,-73.25,Colombia,CO,admin,544134,1170481949
Fengcheng,40.4543,124.0646,China,CN,,543933,1156519626
Ixtapaluca,19.3186,-98.8822,Mexico,MX,minor,542211,1484452937
Ghulja,43.9,81.35,China,CN,minor,542507,1156064979
City of Calamba,14.2167,121.1667,Philippines,PH,,539671,1608985581
Ananindeua,-1.3658,-48.3719,Brazil,BR,,540410,1076025295
Xiangyang,34.2999,108.4816,China,CN,,541554,1156215566
Fuding,27.2,120.2,China,CN,minor,542000,1156530120
An Nasiriyah,31.0439,46.2575,Iraq,IQ,admin,541600,1368273311
Al Hillah,32.4833,44.4333,Iraq,IQ,admin,541034,1368916692
Ibague,4.4333,-75.2333,Colombia,CO,admin,541101,1170245063
Ryazan,54.63,39.7425,Russia,RU,admin,537622,1643205787
Kassala,15.45,36.4,Sudan,SD,admin,536009,1729157224
Tripoli,34.4367,35.8344,Lebanon,LB,admin,530000,1422886065
Chang'an,29.4761,113.448,China,CN,minor,537500,1156139784
Koto-ku,35.6728,139.8173,Japan,JP,,523117,1392003346
Naberezhnyye Chelny,55.7,52.3333,Russia,RU,,533839,1643008493
Aksu,41.185,80.2904,China,CN,minor,535657,1156436913
Salta,-24.7833,-65.4167,Argentina,AR,admin,535303,1032926124
Astrakhan,46.35,48.035,Russia,RU,admin,532504,1643407929
Gulbarga,17.329,76.825,India,IN,,533587,1356091187
Cadaado,6.1403,46.6256,Somalia,SO,,534023,1706406560
Lyon,45.76,4.84,France,FR,admin,522969,1250196189
Wuhai,39.6844,106.8158,China,CN,minor,532902,1156575615
Mingguang,32.7816,117.9899,China,CN,,532732,1156864248
Antwerp,51.2178,4.4003,Belgium,BE,minor,529247,1056168623
Yazd,31.8822,54.3397,Iran,IR,admin,529673,1364429875
Touba,14.8667,-15.8833,Senegal,SN,,529176,1686956738
Ardabil,38.2425,48.29,Iran,IR,admin,529374,1364437616
Bikaner,28.0167,73.3119,India,IN,,529007,1356026593
Agartala,23.8333,91.2833,India,IN,admin,522613,1356148992
Ndola,-12.9667,28.6333,Zambia,ZM,admin,528330,1894032745
Himeji,34.8167,134.6833,Japan,JP,,527596,1392003149
Palm Bay,27.9631,-80.6593,United States,US,,528322,1840015094
Tultitlan de Mariano Escobedo,19.645,-99.1694,Mexico,MX,minor,520557,1484562374
Ailan Mubage,43.908,81.2777,China,CN,minor,526745,1156279608
Bandar `Abbas,27.1833,56.2667,Iran,IR,admin,526648,1364120623
Bac Ninh,21.1833,106.05,Vietnam,VN,admin,520000,1704025181
Ciudad Apodaca,25.7817,-100.1886,Mexico,MX,minor,523370,1484855080
Santa Teresa del Tuy,10.2333,-66.65,Venezuela,VE,minor,525321,1862528581
Maipu,-33.5167,-70.7667,Chile,CL,,521627,1152583016
Penza,53.2,45,Russia,RU,admin,523726,1643492830
Soacha,4.5872,-74.2214,Colombia,CO,minor,522442,1170512000
Al Qatif,26.556,49.996,Saudi Arabia,SA,,524182,1682001245
Port Said,31.2625,32.3061,Egypt,EG,admin,524433,1818628574
Loni,28.75,77.28,India,IN,,516082,1356528413
Yucheng,36.9329,116.6403,China,CN,minor,522878,1156530681
Sevastopol,44.605,33.5225,Ukraine,UA,admin,522057,1804806030
Meknes,33.895,-5.5547,Morocco,MA,,520428,1504333193
Mixco,14.6338,-90.6146,Guatemala,GT,minor,517505,1320420152
Arak,34.0917,49.6892,Iran,IR,admin,520944,1364624691
Pohang,36.0322,129.365,South Korea,KR,minor,520305,1410983252
Longzhou,30.32,112.23,China,CN,,520000,1156863928
Anda,46.4078,125.3252,China,CN,minor,520000,1156142150
Jinghong,22.0057,100.7948,China,CN,,519935,1156181533
Sheffield,53.3808,-1.4703,United Kingdom,GB,,518090,1826289852
Utsunomiya,36.5551,139.8826,Japan,JP,admin,518197,1392506125
Suez,29.9667,32.55,Egypt,EG,admin,516959,1818495972
Nuremberg,49.4539,11.0775,Germany,DE,minor,515543,1276166609
Surrey,49.19,-122.8489,Canada,CA,,517887,1124001454
Heshan,22.7697,112.9578,China,CN,,516500,1156013872
Ujjain,23.17,75.79,India,IN,,515215,1356050735
Jiaji,19.2431,110.4642,China,CN,minor,515700,1156658217
Santa Marta,11.2419,-74.2053,Colombia,CO,admin,515556,1170715594
Joinvile,-26.3204,-48.8437,Brazil,BR,,515288,1076050637
Beining,41.5961,121.7928,China,CN,,514898,1156424678
Des Moines,41.5725,-93.6105,United States,US,admin,514654,1840007069
Hai Duong,20.9397,106.3306,Vietnam,VN,admin,507469,1704909566
Carrefour,18.5344,-72.4094,Haiti,HT,,511345,1332000098
Maturin,9.7423,-63.1889,Venezuela,VE,admin,514046,1862546949
Homyel',52.4453,30.9842,Belarus,BY,admin,510300,1112580227
Leicester,52.6344,-1.1319,United Kingdom,GB,,508916,1826431946
Yanji,42.9044,129.5067,China,CN,minor,513072,1156405468
Macapa,0.033,-51.0653,Brazil,BR,admin,512902,1076189884
Yicheng,31.7117,112.2551,China,CN,minor,512530,1156742818
Ulhasnagar,19.22,73.15,India,IN,,506098,1356375341
Al `Ashir min Ramadan,30.3065,31.7415,Egypt,EG,,511987,1818297014
Lipetsk,52.6167,39.6,Russia,RU,admin,510439,1643772906
Al `Amarah,31.8333,47.15,Iraq,IQ,admin,511500,1368336235
Bhilwara,25.35,74.63,India,IN,,509483,1356077831
Encheng,22.1879,112.3131,China,CN,minor,509700,1156653230
Murrieta,33.5719,-117.1909,United States,US,,509526,1840020553
Aden,12.8,45.0333,Yemen,YE,admin,507355,1887867886
Kitwe,-12.8167,28.2,Zambia,ZM,,504194,1894321752
Matsuyama,33.8333,132.7667,Japan,JP,admin,506743,1392220893
Jhansi,25.4486,78.5696,India,IN,,507000,1356712664
Pingtung,22.6761,120.4942,Taiwan,TW,admin,503530,1158209038
Lapu-Lapu City,10.3127,123.9488,Philippines,PH,admin,497604,1608430676
Matsudo,35.7876,139.9032,Japan,JP,,497514,1392642525
Monteria,8.75,-75.8833,Colombia,CO,admin,505334,1170855299
Ichikawa,35.7219,139.9311,Japan,JP,,496657,1392076347
Nagqu,31.4766,92.0569,China,CN,minor,504838,1156260844
Imus,14.4297,120.9367,Philippines,PH,,496794,1608802508
Hsinchu,24.8167,120.9833,Taiwan,TW,admin,499348,1158276420
Kimberley,-28.7383,24.7639,South Africa,ZA,admin,500757,1710282622
Jammu,32.73,74.87,India,IN,admin,502197,1356491738
Belas,-8.9983,13.265,Angola,AO,,500000,1024196826
Talatona,-8.9167,13.1833,Angola,AO,,500000,1024988332
Ile-Ife,7.4667,4.5667,Nigeria,NG,minor,501952,1566756897
Purnea,25.778,87.476,India,IN,,496830,1356486511
Kirov,58.6,49.65,Russia,RU,admin,501468,1643106064
Mykolaiv,46.975,31.995,Ukraine,UA,admin,498748,1804398395
Meicheng,30.6412,116.5689,China,CN,minor,500292,1156136207
Tinnevelly,8.7136,77.7567,India,IN,,497826,1356037155
Niteroi,-22.8833,-43.1036,Brazil,BR,,496696,1076501425
Farah,32.3436,62.1194,Afghanistan,AF,admin,500000,1004523791
Sukkur,27.7061,68.8483,Pakistan,PK,minor,499900,1586383591
Oujda-Angad,34.6867,-1.9114,Morocco,MA,admin,494252,1504891036
Taozhou,30.8956,119.411,China,CN,minor,499132,1156438524
Marka,1.6833,44.75,Somalia,SO,admin,499000,1706165964
Higashi-osaka,34.6794,135.6008,Japan,JP,,490819,1392117396
Johor Bahru,1.4556,103.7611,Malaysia,MY,admin,497097,1458747615
Hongjiang,27.1167,109.95,China,CN,,498100,1156039152
Bello,6.3333,-75.5667,Colombia,CO,minor,495483,1170423489
Chimbote,-9.0745,-78.5936,Peru,PE,,497875,1604199858
Duisburg,51.4347,6.7625,Germany,DE,minor,495885,1276977172
Qaraghandy,49.8028,73.1056,Kazakhstan,KZ,admin,497777,1398274508
Mesa,33.4015,-111.7178,United States,US,,497752,1840020566
Toulouse,43.6045,1.444,France,FR,admin,493465,1250258110
Likasi,-10.9833,26.7333,Congo (Kinshasa),CD,,495000,1180978192
Dengtacun,41.4237,123.3203,China,CN,,496122,1156096868
Lembok,-8.565,116.351,Indonesia,ID,,495651,1360013261
Zhijiang,30.4271,111.7506,China,CN,,495995,1156769646
Chengjiao,35.4043,114.0593,China,CN,minor,495744,1156571332
Beipiao,41.802,120.7621,China,CN,,496164,1156378599
Suoluntun,45.2279,124.8432,China,CN,,495900,1156764587
Staten Island,40.5834,-74.1496,United States,US,,495747,1840034032
Kota Bharu,6.1333,102.25,Malaysia,MY,admin,491237,1458150101
Ciudad Lopez Mateos,19.55,-99.2833,Mexico,MX,minor,489937,1484363879
Celaya,20.5222,-100.8122,Mexico,MX,minor,494304,1484979555
Vinh,18.6667,105.6667,Vietnam,VN,admin,490000,1704960059
Duyun,26.2672,107.5143,China,CN,,493574,1156084618
Los Mochis,25.7835,-108.9937,Mexico,MX,minor,490000,1484443585
`Ajman,25.4136,55.4456,United Arab Emirates,AE,admin,490035,1784337875
Nyala,12.05,24.8833,Sudan,SD,admin,492984,1729833248
Larkana,27.5583,68.2111,Pakistan,PK,minor,490508,1586678302
Wichita,37.6895,-97.3443,United States,US,,491916,1840001686
Nishinomiya-hama,34.7376,135.3416,Japan,JP,,487010,1392114116
Cheboksary,56.1333,47.25,Russia,RU,admin,489498,1643163382
Yuanping,38.7299,112.7134,China,CN,,491213,1156294277
Toledo,41.6638,-83.5827,United States,US,,490832,1840000572
Yueqing,28.1188,120.9621,China,CN,,488980,1156900058
Edinburgh,55.9533,-3.1892,United Kingdom,GB,,488050,1826492520
Belgaum,15.85,74.5,India,IN,,488157,1356390535
Tula,54.2,37.6167,Russia,RU,admin,485221,1643255206
Gdansk,54.3475,18.6453,Poland,PL,admin,486022,1616406372
Shahe,36.8622,114.502,China,CN,,486329,1156690538
Serra,-20.1289,-40.3078,Brazil,BR,,485376,1076191325
Brookhaven,40.832,-72.9517,United States,US,,485984,1840057464
Gaoping,35.7911,112.9259,China,CN,,484862,1156238773
Dunhua,43.3667,128.2333,China,CN,minor,483811,1156058709
Az Zarqa',32.0833,36.1,Jordan,JO,admin,481300,1400161837
Sylhet,24.9,91.8667,Bangladesh,BD,admin,479837,1050646703
Kaihua,23.3715,104.2437,China,CN,minor,481505,1156017759
Caerdydd,51.4817,-3.1792,United Kingdom,GB,,479000,1826362422
Jamnagar,22.47,70.07,India,IN,,479920,1356104995
Fuyuan,48.3614,134.2875,China,CN,minor,480000,1156196485
Gaya,24.75,85.01,India,IN,,474093,1356045727
Florianopolis,-27.6122,-48.4853,Brazil,BR,admin,477798,1076190259
Chiniot,31.7194,72.9842,Pakistan,PK,minor,477781,1586413435
Jiannan,31.3446,104.1994,China,CN,minor,477868,1156155414
Oita,33.2333,131.6067,Japan,JP,admin,477186,1392081193
Berbera,10.4356,45.0164,Somalia,SO,,478000,1706893125
Kaliningrad,54.7003,20.4531,Russia,RU,admin,475056,1643178106
Mbeya,-8.9,33.45,Tanzania,TZ,admin,467000,1834396594
Nangong,37.3606,115.3803,China,CN,,476096,1156426803
Ambattur,13.1143,80.1548,India,IN,,466205,1356685959
Katlehong,-26.3333,28.15,South Africa,ZA,,467890,1710975690
Kurashiki,34.5833,133.7667,Japan,JP,,474862,1392003246
Barura,23.375,91.0583,Bangladesh,BD,,473590,1050831924
San Juan,-31.5342,-68.5261,Argentina,AR,admin,471389,1032869625
Vila Velha,-20.3364,-40.2936,Brazil,BR,,472762,1076404077
Mazar-e Sharif,36.7,67.1167,Afghanistan,AF,admin,469247,1004436363
Shekhupura,31.7111,73.9878,Pakistan,PK,minor,473129,1586291726
Worthing,50.8147,-0.3714,United Kingdom,GB,,474485,1826936965
Piura,-5.2,-80.6333,Peru,PE,admin,473025,1604331641
Mandaluyong City,14.58,121.03,Philippines,PH,admin,425758,1608166320
Kartal,40.8872,29.19,Turkey,TR,minor,461155,1792988658
Jiaojiangcun,28.6804,121.45,China,CN,,471500,1156812073
Harrisburg,40.2752,-76.8843,United States,US,admin,472261,1840001288
Laohekou,32.3849,111.6695,China,CN,,471482,1156791804
Kagithane,41.0719,28.9664,Turkey,TR,,437026,1792526380
Agege,6.6219,3.3258,Nigeria,NG,minor,459939,1566564887
Angeles City,15.1472,120.5847,Philippines,PH,admin,462928,1608036027
Sao Jose do Rio Preto,-20.8081,-49.3811,Brazil,BR,,469173,1076760827
Pasay City,14.55,121,Philippines,PH,admin,440656,1608448280
Beian,48.2395,126.5037,China,CN,minor,470000,1156084414
Fujin,47.2489,132.0341,China,CN,minor,470000,1156404715
Salt Lake City,22.61,88.4,India,IN,,403316,1356720205
Balashikha,55.8167,37.9667,Russia,RU,,468221,1643989845
Xiaoyi,37.1449,111.7718,China,CN,,468770,1156910270
Port St. Lucie,27.2796,-80.3884,United States,US,,468979,1840015119
Lanus,-34.7,-58.4,Argentina,AR,minor,459263,1032009573
Qingzhen,26.5555,106.4646,China,CN,,467992,1156587033
Jiangshan,28.7412,118.6225,China,CN,,467862,1156346497
Ba`qubah,33.75,44.6333,Iraq,IQ,admin,467900,1368444902
Katsushika-ku,35.7434,139.8472,Japan,JP,,453410,1392003368
Buraydah,26.3333,43.9667,Saudi Arabia,SA,admin,467410,1682470726
Longjiang,27.582,120.5488,China,CN,,464695,1156034166
Tan Uyen,11.0508,106.7636,Vietnam,VN,minor,466053,1704985934
Long Beach,33.7977,-118.167,United States,US,,466565,1840020490
Marikina City,14.65,121.1,Philippines,PH,admin,456059,1608000077
Manado,1.4931,124.8413,Indonesia,ID,admin,461636,1360771278
Campos,-21.7539,-41.3239,Brazil,BR,,463731,1076606365
Kanazawa,36.5611,136.6564,Japan,JP,admin,462479,1392684679
Iloilo,10.7167,122.5667,Philippines,PH,admin,457626,1608875987
Reno,39.5497,-119.8483,United States,US,,463328,1840020121
Calabar,4.9767,8.3383,Nigeria,NG,admin,461796,1566495489
Kuqa,41.7156,82.9322,China,CN,minor,462588,1156894895
Piraeus,37.943,23.6469,Greece,GR,minor,448997,1300458367
Madison,43.0822,-89.393,United States,US,admin,461778,1840002915
Jalgaon,21.004,75.568,India,IN,,460468,1356734842
Cranbourne,-38.0996,145.2834,Australia,AU,,460491,1036685862
Kowloon City,22.3282,114.1916,Hong Kong,HK,,418732,1344000061
Maua,-23.6678,-46.4608,Brazil,BR,,453286,1076477498
Fukuyama,34.4833,133.3667,Japan,JP,,459576,1392551602
Xicheng,23.3629,103.1545,China,CN,minor,459781,1156161838
Kikwit,-5.0386,18.8181,Congo (Kinshasa),CD,,458000,1180518247
Amagasaki,34.7333,135.4,Japan,JP,,450506,1392003182
Pyeongtaek,36.9922,127.1128,South Korea,KR,,457873,1410641095
Kurnool,15.83,78.05,India,IN,,457633,1356058372
Little Rock,34.7256,-92.3577,United States,US,admin,457379,1840015509
Melaka,2.1944,102.2486,Malaysia,MY,admin,455300,1458467506
General Trias,14.3833,120.8833,Philippines,PH,,450583,1608826995
Jian'ou,27.0387,118.3215,China,CN,minor,456000,1156278784
Esenler,41.0339,28.8903,Turkey,TR,,444561,1792000667
Huadian,42.9633,126.7478,China,CN,,455339,1156018839
Tanta,30.7833,31,Egypt,EG,admin,429503,1818501770
Kota Kinabalu,5.975,116.0725,Malaysia,MY,admin,452058,1458441859
Kursk,51.7167,36.1833,Russia,RU,admin,450977,1643011077
Minzhu,43.7192,127.337,China,CN,minor,453265,1156295044
Stavropol,45.05,41.9833,Russia,RU,admin,450680,1643947228
Udaipur,24.58,73.68,India,IN,,451100,1356266094
Mogi das Cruzes,-23.5228,-46.1878,Brazil,BR,,450785,1076857883
Mariupol,47.0958,37.5494,Ukraine,UA,minor,449498,1804630021
Eslamshahr,35.5606,51.2347,Iran,IR,minor,448129,1364870126
San Nicolas de los Garza,25.75,-100.2833,Mexico,MX,minor,443273,1484264138
Greenville,34.8354,-82.3646,United States,US,,450487,1840013501
Sham Shui Po,22.3307,114.1622,Hong Kong,HK,,405869,1344000058
Barcelona,10.1333,-64.6833,Venezuela,VE,admin,448016,1862418619
Constantine,36.365,6.6147,Algeria,DZ,admin,448374,1012275076
Tanbei,35.0907,112.9317,China,CN,minor,447701,1156690688
Ado-Ekiti,7.6167,5.2167,Nigeria,NG,admin,446749,1566196391
Batman,37.887,41.132,Turkey,TR,admin,447106,1792630786
Bandung,-6.912,107.6097,Indonesia,ID,admin,432557,1360313023
Baisha,29.4774,119.2853,China,CN,,446000,1156988315
Avcilar,40.9792,28.7214,Turkey,TR,,435625,1792144759
Denton,33.2175,-97.1418,United States,US,,445814,1840019390
